     2.00           OBSERVATION DATA    G (GPS)             RINEX VERSION / TYPE
teqc  1999Jul19     autorun             20100411 04:10:30UTCPGM / RUN BY / DATE
MSWinNT 4.0|PentPro|wcl386 10.6|MSWin95/98/NT|486/DX+       COMMENT
BIT 2 OF LLI FLAGS DATA COLLECTED UNDER A/S CONDITION       COMMENT
BJFS                                                        MARKER NAME
21601M001                                                   MARKER NUMBER
QUFENG              CASM                                    OBSERVER / AGENCY
3332                ASHTECH Z-XII3      CD00-1D02           REC # / TYPE / VERS
1126                ASH700936B_M    SNOW                    ANT # / TYPE
        0.0000        0.0000        0.0000                  APPROX POSITION XYZ
        0.0460        0.0000        0.0000                  ANTENNA: DELTA H/E/N
     1     1                                                WAVELENGTH FACT L1/2
     5    L1    L2    C1    P1    P2                        # / TYPES OF OBSERV
    30.0000                                                 INTERVAL
 SNR is mapped to RINEX snr flag value [1-9]                COMMENT
  L1: 1 -> 1;  90 -> 5; 210 -> 9                            COMMENT
  L2: 1 -> 1; 150 -> 5; 250 -> 9                            COMMENT
  2010     4    10     0     0   30.0000000     GPS         TIME OF FIRST OBS
                                                            END OF HEADER
 10  4 10  0  0 30.0000000  0  9G 2G29G12G 4G13G17G10G 5G30
 -23767369.90549 -18490802.82048  20266089.565    20266089.538    20266089.969
  -2833744.35849  -2181356.02845  24147450.006    24147450.208    24147453.276
  -7224229.88049  -5591403.24045  23789900.567    23789900.904    23789902.939
 -13095062.40549 -10149729.82346  21949553.724    21949554.270    21949557.564
  -7114558.40049  -5514640.79045  23197524.262    23197524.258    23197526.743
    659621.14549    549282.63345  24898305.018    24898306.861    24898312.055
 -24605451.88949 -19125558.48547  20005167.407    20005166.851    20005170.010
 -24176058.42749 -18787233.00047  20845224.582    20845225.281    20845227.258
  -6860638.11349  -5316226.95045  23769703.874    23769703.737    23769706.946
 10  4 10  0  1  0.0000000  0  9G 2G29G12G 4G13G17G10G 5G30
 -23786525.33049 -18505729.13148  20262444.407    20262444.272    20262444.761
  -2932067.53849  -2257971.46345  24128739.730    24128739.801    24128742.968
  -7156898.62149  -5538937.37445  23802713.127    23802713.255    23802715.270
 -13030057.98549 -10099077.07246  21961923.683    21961924.456    21961927.486
  -7048791.41149  -5463393.82145  23210039.370    23210039.814    23210041.580
    773904.28649    638334.23845  24920052.413    24920052.936    24920058.133
 -24600389.85049 -19121614.04347  20006130.720    20006130.114    20006133.403
 -24221000.11749 -18822252.48847  20836672.517    20836672.892    20836674.896
  -6823896.24349  -5287596.95845  23776695.687    23776695.556    23776698.713
 10  4 10  0  1 30.0000000  0  9G 2G29G12G 4G13G17G10G 5G30
 -23805382.49449 -18520423.03048  20258856.017    20258856.026    20258856.344
  -3030210.92249  -2334446.79345  24110063.635    24110063.630    24110066.825
  -7089279.86249  -5486247.46945  23815580.468    23815580.047    23815583.690
 -12964851.46649 -10048266.83446  21974332.135    21974332.536    21974335.616
  -6982525.88949  -5411758.39245  23222649.363    23222648.635    23222651.790
    888245.42249    727431.05945  24941810.930    24941811.663    24941817.955
 -24594865.63549 -19117309.46647  20007181.966    20007181.337    20007184.772
 -24265551.42649 -18856967.78647  20828194.635    20828195.091    20828197.126
  -6786666.80549  -5258587.04345  23783780.224    23783780.821    23783783.311
 10  4 10  0  2  0.0000000  0  9G 2G29G12G 4G13G17G10G 5G30
 -23823939.45149 -18534883.00948  20255324.761    20255324.591    20255325.109
  -3128171.32549  -2410779.56045  24091422.366    24091423.135    24091425.106
  -7021376.09149  -5433335.48245  23828501.928    23828501.911    23828505.195
 -12899442.64549  -9997298.96846  21986779.017    21986779.709    21986782.837
  -6915763.14949  -5359735.53645  23235353.905    23235354.978    23235357.122
   1002643.10249    816571.97045  24963580.337    24963581.302    24963585.811
 -24588879.69049 -19112645.10147  20008321.016    20008320.428    20008323.777
 -24309711.29849 -18891378.07047  20819791.303    20819791.878    20819793.907
  -6748951.34449  -5229198.41345  23790957.236    23790958.572    23790960.978
 10  4 10  0  2 30.0000000  0  9G 2G29G12G 4G13G17G10G 5G30
 -23842196.65849 -18549109.41648  20251850.553    20251850.566    20251850.934
  -3225947.60849  -2486968.84845  24072816.260    24072816.516    24072818.870
  -6953191.46349  -5380204.64345  23841477.011    23841477.499    23841481.387
 -12833832.78049  -9946174.44046  21999264.249    21999264.566    21999268.060
  -6848506.89049  -5307328.09345  23248152.426    23248152.009    23248155.254
   1117093.99449    905754.32445  24985359.797    24985360.895    24985365.492
 -24582433.95649 -19107622.46047  20009547.590    20009547.119    20009550.426
 -24353480.58049 -18925483.99547  20811462.275    20811463.074    20811464.889
  -6710753.26049  -5199433.70645  23798226.126    23798226.680    23798229.001
 10  4 10  0  3  0.0000000  0  9G 2G29G12G 4G13G17G10G 5G30
 -23860152.66049 -18563101.11148  20248433.665    20248433.621    20248433.996
  -3323536.74049  -2563012.30145  24054245.731    24054245.722    24054248.684
  -6884727.98849  -5326856.53245  23854505.248    23854507.168    23854508.907
 -12768021.80349  -9894893.19946  22011787.640    22011788.576    22011791.443
  -6780758.80649  -5254537.43245  23261044.393    23261044.584    23261046.639
   1231596.52549    994976.87345  25007148.903    25007150.230    25007153.354
 -24575529.28649 -19102242.20047  20010861.505    20010860.809    20010864.210
 -24396858.89249 -18959285.27047  20803207.651    20803208.319    20803210.125
  -6672074.24649  -5169294.26045  23805586.573    23805586.765    23805591.319
 10  4 10  0  3 30.0000000  0  9G 2G29G12G 4G13G17G10G 5G30
 -23877806.29249 -18576857.19648  20245074.266    20245074.237    20245074.563
  -3420936.34349  -2638908.06545  24035711.079    24035711.503    24035713.777
  -6815988.73449  -5273293.53245  23867586.080    23867585.764    23867589.775
 -12702009.99249  -9843455.47646  22024349.368    22024349.640    22024353.026
  -6712521.12649  -5201365.26045  23274029.629    23274029.555    23274032.568
   1346148.64349   1084238.07545  25028947.410    25028948.350    25028954.142
 -24568167.51449 -19096505.76147  20012262.385    20012261.799    20012265.246
 -24439846.40049 -18992782.02447  20795027.354    20795027.792    20795029.829
  -6632916.66449  -5138781.91645  23813038.034    23813039.006    23813040.676
 10  4 10  0  4  0.0000000  0  8G 2G29G12G 4G13G10G 5G30
 -23895158.37249 -18590378.30048  20241772.321    20241772.203    20241772.608
  -3518145.77149  -2714655.64045  24017212.625    24017212.929    24017215.442
  -6746978.71849  -5219519.53745  23880718.210    23880719.492    23880721.924
 -12635799.41049  -9791862.85546  22036948.903    22036949.048    22036952.362
  -6643798.15849  -5147814.93445  23287107.362    23287106.921    23287110.757
 -24560351.33749 -19090415.23547  20013749.771    20013749.370    20013752.563
 -24482444.70349 -19025975.50047  20786921.205    20786921.734    20786923.520
  -6593284.58849  -5107899.80145  23820579.776    23820580.046    23820583.558
 10  4 10  0  4 30.0000000  0  8G 2G29G12G 4G13G10G 5G30
 -23912205.24549 -18603661.58548  20238528.380    20238528.358    20238528.695
  -3615160.07449  -2790251.18345  23998751.340    23998751.830    23998754.020
  -6677698.29049  -5165534.83445  23893901.973    23893902.086    23893904.734
 -12569387.78849  -9740113.58546  22049586.623    22049587.308    22049589.605
  -6574589.62949  -5093886.26145  23300277.295    23300276.804    23300280.304
 -24552078.63649 -19083968.98347  20015324.009    20015323.460    20015327.041
 -24524651.47549 -19058863.88847  20778889.548    20778890.533    20778892.112
  -6553177.40549  -5076647.49845  23828211.916    23828212.582    23828215.824
 10  4 10  0  5  0.0000000  0  8G 2G29G12G 4G13G10G 5G30
 -23928946.53349 -18616706.75048  20235342.649    20235342.434    20235343.003
  -3711976.87549  -2865692.81745  23980327.567    23980328.114    23980330.509
  -6608150.64149  -5111341.91445  23907136.559    23907137.773    23907139.937
 -12502775.99849  -9688208.33046  22062262.444    22062262.713    22062265.631
  -6504898.33649  -5039581.39745  23313538.968    23313539.532    23313542.055
 -24543351.68849 -19077168.76847  20016984.668    20016984.160    20016987.587
 -24566467.12549 -19091447.50147  20770932.341    20770933.022    20770934.598
  -6512598.09749  -5045027.29845  23835934.068    23835933.497    23835938.300
 10  4 10  0  5 30.0000000  0  8G 2G29G12G 4G13G10G 5G30
 -23945380.92449 -18629512.77548  20232215.288    20232215.209    20232215.840
  -3808594.08649  -2940978.94445  23961941.756    23961942.203    23961944.551
  -6538339.13249  -5056943.37745  23920421.410    23920421.847    23920424.630
 -12435964.25649  -9636147.28146  22074976.315    22074977.091    22074979.859
  -6434726.98049  -4984902.46945  23326892.190    23326892.199    23326894.791
 -24534171.78749 -19070015.60447  20018731.615    20018731.141    20018734.508
 -24607891.59949 -19123726.30147  20763049.482    20763049.890    20763051.941
  -6471549.50149  -5013041.43245  23843745.316    23843747.137    23843748.813
 10  4 10  0  6  0.0000000  0  8G 2G29G12G 4G13G10G 5G30
 -23961507.33849 -18642078.82048  20229146.541    20229146.383    20229147.101
  -3905008.77949  -3016107.23745  23943594.578    23943594.814    23943597.383
  -6468266.42349  -5002341.32345  23933755.912    23933756.825    23933759.472
 -12368952.63249  -9583930.48046  22087728.177    22087728.464    22087732.187
  -6364077.53549  -4929850.99945  23340336.453    23340336.721    23340340.158
 -24524540.13749 -19062510.43447  20020564.423    20020563.862    20020567.268
 -24648924.46249 -19155699.95447  20755241.169    20755241.615    20755243.540
  -6430033.61349  -4980691.43245  23851645.550    23851645.859    23851649.862
 10  4 10  0  6 30.0000000  0  8G 2G29G12G 4G13G10G 5G30
 -23977325.57949 -18654404.72948  20226136.416    20226136.347    20226136.670
  -4001219.06549  -3091076.25745  23925286.339    23925286.189    23925289.446
  -6397935.99749  -4947538.44445  23947139.496    23947140.430    23947144.066
 -12301741.98249  -9531558.58546  22100517.972    22100518.629    22100521.746
  -6292952.95249  -4874429.29545  23353870.925    23353870.762    23353874.248
 -24514458.47849 -19054654.60047  20022482.913    20022482.414    20022485.893
 -24689566.77849 -19187369.27847  20747507.188    20747507.659    20747509.634
  -6388053.22849  -4947979.49345  23859634.248    23859634.849    23859638.704
 10  4 10  0  7  0.0000000  0  8G 2G29G12G 4G13G10G 5G30
 -23992833.96149 -18666489.19048  20223185.252    20223185.160    20223185.528
  -4097222.09049  -3165883.78445  23907017.572    23907018.006    23907020.776
  -6327350.41649  -4892536.73845  23960571.452    23960571.611    23960574.332
 -12234332.19649  -9479031.51846  22113345.641    22113346.269    22113348.956
  -6221355.12349  -4818638.82945  23367495.515    23367495.939    23367498.755
 -24503927.52849 -19046448.67147  20024486.892    20024486.407    20024489.604
 -24729818.23349 -19218734.04447  20739847.603    20739848.052    20739849.905
  -6345610.20949  -4914907.04945  23867710.888    23867710.958    23867714.596
 10  4 10  0  7 30.0000000  0  8G 2G29G12G 4G13G10G 5G30
 -24008032.27649 -18678332.04648  20220293.105    20220293.062    20220293.472
  -4193016.18749  -3240528.52245  23888788.593    23888789.335    23888791.661
  -6256513.89749  -4837339.50245  23974051.156    23974051.779    23974055.592
 -12166724.45949  -9426350.21546  22126210.929    22126211.922    22126214.478
  -6149287.36649  -4762482.19645  23381209.585    23381209.735    23381212.771
 -24492949.60749 -19037894.46247  20026575.928    20026575.450    20026578.806
 -24769679.57649 -19249794.82747  20732262.223    20732262.643    20732264.713
  -6302707.52149  -4881476.40645  23875875.111    23875875.056    23875879.243
 10  4 10  0  8  0.0000000  0  8G 2G29G12G 4G13G10G 5G30
 -24022918.46949 -18689931.68348  20217460.377    20217460.353    20217460.710
  -4288597.73449  -3315007.63145  23870600.023    23870600.597    23870603.832
  -6185427.73249  -4781947.71845  23987578.502    23987578.175    23987582.488
 -12098917.94049  -9373514.00246  22139114.149    22139114.690    22139117.954
  -6076751.21449  -4705960.56145  23395012.906    23395013.709    23395016.416
 -24481524.61049 -19028991.87247  20028750.047    20028749.605    20028752.922
 -24809149.69949 -19280550.76047  20724751.343    20724751.883    20724753.629
  -6259346.62149  -4847688.75345  23884126.405    23884126.273    23884130.852
 10  4 10  0  8 30.0000000  0  8G 2G29G12G 4G13G10G 5G30
 -24037492.78149 -18701288.30248  20214687.020    20214687.063    20214687.327
  -4383965.41949  -3389320.09645  23852452.212    23852452.241    23852455.553
  -6114096.36449  -4726364.89345  24001152.411    24001152.928    24001154.997
 -12030914.05549  -9320524.00346  22152054.887    22152054.782    22152059.051
  -6003750.25849  -4649076.74745  23408904.611    23408905.012    23408907.535
 -24469655.07149 -19019742.89047  20031008.747    20031008.361    20031011.521
 -24848229.76849 -19311002.75247  20717314.578    20717315.081    20717316.943
  -6215531.09649  -4813546.81545  23892464.336    23892464.341    23892467.099
 10  4 10  0  9  0.0000000  0  8G 2G29G12G 4G13G10G 5G30
 -24051753.07049 -18712400.22448  20211973.398    20211973.402    20211973.646
  -4479115.75049  -3463463.19445  23834345.692    23834345.736    23834348.414
  -6042521.72349  -4670592.51645  24014772.711    24014773.938    24014776.677
 -11962712.33549  -9267379.85746  22165033.289    22165033.367    22165036.966
  -5930285.87949  -4591831.84045  23422884.319    23422884.634    23422887.017
 -24457341.70449 -19010148.06847  20033351.955    20033351.299    20033354.719
 -24886918.94149 -19341150.15547  20709952.234    20709952.358    20709954.729
  -6171262.79949  -4779052.05445  23900888.340    23900888.989    23900892.622
 10  4 10  0  9 30.0000000  0  8G 2G29G12G 4G13G10G 5G30
 -24065698.76649 -18723267.01048  20209319.664    20209319.579    20209319.874
  -4574046.96949  -3537435.55045  23816280.900    23816280.932    23816283.714
  -5970707.42549  -4614633.36545  24028438.529    24028438.568    24028442.040
 -11894313.46949  -9214082.09246  22178049.171    22178049.906    22178053.675
  -5856361.43049  -4534228.41345  23436951.715    23436952.246    23436954.402
 -24444585.83549 -19000208.43047  20035779.296    20035778.899    20035781.915
 -24925217.63449 -19370993.29347  20702664.189    20702664.883    20702666.568
  -6126544.70549  -4744206.85545  23909397.840    23909398.748    23909401.607
 10  4 10  0 11  0.0000000  0  8G 2G29G12G 4G13G10G 5G30
 -24105610.66249 -18754367.21848  20201724.697    20201724.667    20201725.095
  -4857470.45849  -3758284.96945  23762347.104    23762347.369    23762350.573
  -5753828.82949  -4445637.20645  24069709.005    24069710.516    24069712.409
 -11687909.00049  -9053247.57546  22217326.742    22217328.054    22217330.363
  -5631821.76649  -4359262.61745  23479680.212    23479680.525    23479683.123
 -24403648.79549 -18968309.44947  20043569.360    20043568.826    20043571.978
 -25037746.21449 -19458677.90147  20681250.703    20681251.517    20681253.104
  -5989686.17549  -4637563.99945  23935440.936    23935441.509    23935444.578
 10  4 10  0 11 30.0000000  0  8G 2G29G12G 4G13G10G 5G30
 -24118300.90949 -18764255.73148  20199309.824    20199309.689    20199310.130
  -4951511.24549  -3831563.49845  23744451.718    23744451.648    23744455.097
  -5681098.39049  -4388964.20045  24083549.180    24083549.865    24083553.121
 -11618737.08749  -8999347.42646  22230489.763    22230490.172    22230493.603
  -5556092.87249  -4300253.13345  23494090.953    23494091.639    23494094.963
 -24389149.28049 -18957011.12647  20046328.548    20046327.936    20046331.272
 -25074497.69749 -19487315.42147  20674257.120    20674257.509    20674259.615
  -5943204.95549  -4601344.91245  23944285.998    23944287.365    23944289.718
 10  4 10  0 12  0.0000000  0  8G 2G29G12G 4G13G10G 5G30
 -24130665.77749 -18773890.70648  20196956.824    20196956.768    20196957.178
  -5045314.46149  -3904656.89145  23726601.478    23726602.185    23726603.578
  -5608137.87249  -4332111.89245  24097433.231    24097433.644    24097436.752
 -11549364.13749  -8945290.62946  22243691.038    22243691.982    22243694.864
  -5479910.56749  -4240890.36645  23508588.102    23508588.853    23508591.065
 -24374208.95549 -18945369.32147  20049171.579    20049170.898    20049174.285
 -25110854.06749 -19515645.05947  20667338.730    20667339.259    20667341.109
  -5896280.89849  -4564780.75645  23953215.509    23953215.094    23953220.829
 10  4 10  0 12 30.0000000  0  8G 2G29G12G 4G13G10G 5G30
 -24142706.73449 -18783273.27848  20194665.503    20194665.514    20194665.809
  -5138879.74049  -3977564.87645  23708796.585    23708797.001    23708799.321
  -5534952.30649  -4275084.23145  24111360.090    24111361.102    24111363.548
 -11479792.43049  -8891078.95046  22256930.227    22256930.727    22256934.445
  -5403279.74449  -4181178.08745  23523170.560    23523170.218    23523173.623
 -24358830.65549 -18933386.23047  20052097.957    20052097.202    20052100.823
 -25146817.74149 -19543668.70347  20660495.123    20660495.567    20660497.536
  -5848918.25249  -4527874.83845  23962228.289    23962229.614    23962231.545
 10  4 10  0 13  0.0000000  0  8G 2G29G12G 4G13G10G 5G30
 -24154424.53949 -18792404.04048  20192435.735    20192435.538    20192436.019
  -5232206.40349  -4050286.92545  23691037.157    23691037.716    23691039.960
  -5461546.61149  -4217885.04345  24125328.914    24125329.152    24125333.254
 -11410024.30849  -8836714.23446  22270206.672    22270206.767    22270210.537
  -5326204.57949  -4121119.58145  23537837.449    23537838.374    23537841.007
 -24343018.08249 -18921064.74747  20055106.954    20055106.519    20055109.862
 -25182390.84949 -19571388.00647  20653725.785    20653726.343    20653728.379
  -5801121.58649  -4490630.70145  23971323.811    23971324.238    23971326.189
 10  4 10  0 13 30.0000000  0  8G 2G29G12G 4G13G10G 5G30
 -24165818.08449 -18801282.13548  20190267.638    20190267.499    20190267.855
  -5325292.15249  -4122821.25145  23673323.608    23673323.429    23673326.107
  -5387924.27149  -4160517.03145  24139338.870    24139339.533    24139341.741
 -11340059.78249  -8782196.45646  22283520.522    22283520.700    22283524.377
  -5248687.81049  -4060716.95945  23552588.404    23552588.582    23552591.457
 -24326772.07949 -18908405.52647  20058198.492    20058197.799    20058201.215
 -25217573.15649 -19598802.79747  20647030.795    20647031.228    20647033.214
  -5752893.30049  -4453050.26745  23980501.486    23980502.983    23980506.443
 10  4 10  0 14  0.0000000  0  8G 2G29G12G 4G13G10G 5G30
 -24176887.67249 -18809907.79148  20188161.144    20188161.037    20188161.381
  -5418135.43949  -4195166.66645  23655656.109    23655656.150    23655658.594
  -5314089.00149  -4102983.12345  24153389.384    24153390.985    24153391.998
 -11269900.52849  -8727526.94646  22296871.449    22296871.927    22296875.531
  -5170732.91249  -3999972.93745  23567422.883    23567423.872    23567426.354
 -24310095.61649 -18895410.88447  20061371.874    20061371.222    20061374.662
 -25252366.09549 -19625914.17547  20640409.921    20640410.611    20640412.507
  -5704237.30549  -4415136.57645  23989760.495    23989760.964    23989764.331
 10  4 10  0 14 30.0000000  0  8G 2G29G12G 4G13G10G 5G30
 -24187632.11249 -18818280.09248  20186116.560    20186116.632    20186116.973
  -5510733.50549  -4267320.96545  23638035.326    23638035.608    23638038.089
  -5240043.57349  -4045285.44645  24167479.762    24167480.391    24167482.927
 -11199546.77449  -8672705.89446  22310259.293    22310259.908    22310262.700
  -5092342.56549  -3938889.62345  23582340.139    23582341.095    23582342.008
 -24292990.09649 -18882081.91747  20064626.963    20064626.458    20064629.836
 -25286769.88449 -19652722.32247  20633863.106    20633863.563    20633865.575
  -5655156.21049  -4376891.63045  23999100.389    23999101.718    23999103.381
 10  4 10  0 15  0.0000000  0  8G 2G29G12G 4G13G10G 5G30
 -24198050.80249 -18826398.56048  20184133.942    20184133.895    20184134.294
  -5603084.25549  -4339282.57145  23620461.601    23620461.775    23620463.977
  -5165791.72449  -3987426.92045  24181609.395    24181609.730    24181613.466
 -11128999.34049  -8617733.91346  22323684.096    22323684.495    22323688.228
  -5013519.86449  -3877469.38445  23597339.690    23597340.131    23597342.757
 -24275457.17149 -18868419.90447  20067963.384    20067963.058    20067966.191
 -25320785.42549 -19679227.93747  20627390.133    20627390.685    20627392.562
  -5605653.22149  -4338317.88345  24008520.769    24008520.297    24008525.615
 10  4 10  0 15 30.0000000  0  8G 2G29G12G 4G13G10G 5G30
 -24208142.13549 -18834261.94248  20182213.686    20182213.694    20182214.025
  -5695184.50749  -4411048.99045  23602935.372    23602935.098    23602938.510
  -5091335.72549  -3929409.33145  24195777.990    24195778.071    24195781.326
 -11058257.88249  -8562610.74546  22337145.781    22337146.435    22337149.571
  -4934266.67249  -3815713.71145  23612421.162    23612422.090    23612423.615
 -24257497.69549 -18854425.51147  20071381.006    20071380.303    20071383.846
 -25354412.18549 -19705430.60047  20620991.203    20620991.794    20620993.750
  -5555729.79349  -4299416.60245  24018020.830    24018020.960    24018024.479
 10  4 10  0 16  0.0000000  0  9G 2G29G12G 4G13G10G 5G30G15
 -24217905.39749 -18841869.68148  20180355.793    20180355.551    20180356.026
  -5787032.48149  -4482618.83045  23585457.139    23585457.288    23585459.773
  -5016679.29449  -3871235.54045  24209984.692    24209985.236    24209986.678
 -10987323.12549  -8507336.95546  22350644.221    22350644.891    22350648.144
  -4854586.14549  -3753625.06045  23627583.654    23627583.764    23627586.960
 -24239113.74149 -18840100.35947  20074879.359    20074878.821    20074882.137
 -25387650.52849 -19731330.61147  20614666.162    20614666.713    20614668.647
  -5505389.26049  -4260190.27445  24027600.450    24027600.288    24027604.269
  -1692777.46549  -1289489.24545  25262645.998    25262646.464    25262650.349
 10  4 10  0 16 30.0000000  0  9G 2G29G12G 4G13G10G 5G30G15
 -24227340.01849 -18849221.34548  20178560.451    20178560.333    20178560.825
  -5878625.27549  -4553989.82645  23568027.606    23568028.254    23568030.617
  -4941825.45949  -3812907.90945  24224228.981    24224227.926    24224232.811
 -10916195.46749  -8451912.85246  22364179.392    22364179.711    22364183.804
  -4774481.00449  -3691205.52045  23642827.262    23642827.131    23642830.840
 -24220306.55649 -18825445.41747  20078458.273    20078457.893    20078460.959
 -25420500.72049 -19756928.15747  20608414.985    20608415.321    20608417.401
  -5454634.36349  -4220641.04145  24037258.753    24037260.231    24037262.161
  -1807654.19349  -1379003.53345  25240785.644    25240785.178    25240789.945
 10  4 10  0 17  0.0000000  0  9G 2G29G12G 4G13G10G 5G30G15
 -24236445.10349 -18856316.22148  20176827.844    20176827.713    20176828.164
  -5969961.21349  -4625160.66745  23550646.984    23550647.156    23550649.688
  -4866777.64549  -3754429.16445  24238510.038    24238510.818    24238513.248
 -10844875.68149  -8396339.03846  22377751.108    22377751.315    22377755.217
  -4693954.33649  -3628457.54945  23658151.073    23658152.102    23658154.763
 -24201077.95349 -18810462.09347  20082117.382    20082116.860    20082120.051
 -25452963.98649 -19782224.20447  20602237.422    20602237.858    20602239.860
  -5403468.20649  -4180771.35145  24046995.368    24046995.511    24046999.834
  -1922572.70149  -1468550.32045  25218917.136    25218917.057    25218921.589
 10  4 10  0 17 30.0000000  0  9G 2G29G12G 4G13G10G 5G30G15
 -24245219.24349 -18863153.22648  20175158.158    20175158.199    20175158.590
  -6061037.02549  -4696128.81945  23533315.849    23533316.124    23533318.473
  -4791538.46449  -3695801.30145  24252827.493    24252827.857    24252829.461
 -10773363.73349  -8340615.48546  22391359.405    22391359.854    22391363.260
  -4613008.22649  -3565382.72445  23673554.730    23673555.139    23673558.404
 -24181428.86449 -18795151.12747  20085856.454    20085855.661    20085859.155
 -25485039.80149 -19807218.34647  20596133.588    20596133.933    20596136.197
  -5351893.04349  -4140582.96545  24056809.793    24056810.956    24056814.290
  -2037530.11949  -1558127.45545  25197041.382    25197041.681    25197046.033
 10  4 10  0 18  0.0000000  0  9G 2G29G12G 4G13G10G 5G30G15
 -24253661.11149 -18869731.31048  20173551.718    20173551.461    20173551.965
  -6151849.61549  -4766891.85645  23516034.807    23516035.128    23516037.699
  -4716110.90849  -3637026.61645  24267180.813    24267180.421    24267184.816
 -10701659.21849  -8284741.88446  22405004.318    22405004.878    22405008.446
  -4531644.89249  -3501982.79345  23689037.726    23689037.680    23689041.473
 -24161360.70749 -18779513.60847  20089675.308    20089674.688    20089677.938
 -25516727.98849 -19831910.43447  20590103.511    20590104.177    20590105.989
  -5299911.31249  -4100077.75445  24066701.568    24066702.489    24066705.242
  -2152523.39149  -1647732.56645  25175158.997    25175159.620    25175163.342
 10  4 10  0 18 30.0000000  0  9G 2G29G12G 4G13G10G 5G30G15
 -24261770.36949 -18876050.22348  20172008.553    20172008.429    20172008.774
  -6242397.12049  -4837448.32845  23498804.047    23498803.687    23498806.792
  -4640498.00849  -3578107.55345  24281569.440    24281570.788    24281572.739
 -10629763.43949  -8228719.23746  22418685.662    22418685.547    22418689.663
  -4449867.59749  -3438260.29045  23704599.471    23704600.417    23704603.710
 -24140875.49549 -18763551.11847  20093573.532    20093573.129    20093576.187
 -25548029.40649 -19856301.14547  20584147.071    20584147.511    20584149.571
  -5247526.33949  -4059258.32245  24076670.200    24076671.487    24076673.373
  -2267551.54249  -1737364.75745  25153269.864    25153270.063    25153273.303
 10  4 10  0 19  0.0000000  0  9G 2G29G12G 4G13G10G 5G30G15
 -24269546.47349 -18882109.53648  20170528.824    20170528.833    20170529.101
  -6332677.97749  -4907797.04745  23481624.015    23481624.080    23481626.784
  -4564703.60949  -3519047.01945  24295992.631    24295992.305    24295995.005
 -10557677.33049  -8172548.29846  22432403.166    22432404.080    22432407.676
  -4367679.81249  -3374217.92545  23720239.386    23720239.660    23720243.058
 -24119975.22049 -18747265.19947  20097550.716    20097550.176    20097553.480
 -25578944.99049 -19880391.21047  20578264.043    20578264.414    20578266.609
  -5194741.05149  -4018126.97345  24086714.745    24086714.894    24086719.124
  -2382612.00949  -1827022.17945  25131374.546    25131373.462    25131379.545
 10  4 10  0 19 30.0000000  0  9G 2G29G12G 4G13G10G 5G30G15
 -24276988.46349 -18887908.49948  20169112.636    20169112.644    20169112.960
  -6422689.10149  -4977935.55945  23464495.407    23464495.258    23464498.449
  -4488730.84549  -3459847.51845  24310449.835    24310450.845    24310452.567
 -10485400.95849  -8116229.09046  22446156.995    22446157.778    22446160.672
  -4285084.01149  -3309857.62045  23735956.945    23735956.639    23735960.245
 -24098661.01549 -18730656.73247  20101606.689    20101605.978    20101609.299
 -25609474.94449 -19904180.78947  20572454.388    20572455.066    20572456.894
  -5141558.40249  -3976685.99045  24096835.027    24096834.898    24096839.392
  -2497702.40449  -1916702.87645  25109473.449    25109473.533    25109477.962
 10  4 10  0 20  0.0000000  0  9G 2G29G12G 4G13G10G 5G30G15
 -24284095.06449 -18893446.11948  20167760.324    20167760.100    20167760.696
  -6512427.63849  -5047861.66745  23447418.705    23447419.259    23447421.632
  -4412582.28149  -3400511.01345  24324940.484    24324939.994    24324944.526
 -10412934.27649  -8059761.60146  22459947.027    22459947.782    22459951.595
  -4202082.44049  -3245181.15745  23751751.731    23751752.764    23751754.747
 -24076933.82849 -18713726.46347  20105741.257    20105740.745    20105744.034
 -25639619.40649 -19927669.97247  20566718.075    20566718.567    20566720.526
  -5087980.69349  -3934937.15245  24107030.417    24107032.129    24107035.983
  -2612820.08349  -2006404.82245  25087567.151    25087567.518    25087572.044
 10  4 10  0 20 30.0000000  0  9G 2G29G12G 4G13G10G 5G30G15
 -24290863.87849 -18898720.53348  20166472.251    20166472.312    20166472.748
  -6601890.19649  -5117572.73645  23430394.571    23430394.915    23430397.921
  -4336260.15149  -3341039.27745  24339463.979    24339463.710    24339468.218
 -10340276.65949  -8003145.32346  22473773.388    22473773.790    22473777.627
  -4118676.87849  -3180189.87245  23767623.383    23767624.196    23767627.175
 -24054794.50749 -18696475.05447  20109954.204    20109953.669    20109957.196
 -25669377.61949 -19950858.19847  20561055.279    20561055.787    20561057.926
  -5034009.65149  -3892881.85545  24117300.763    24117302.239    24117305.043
  -2727961.74549  -2096125.44645  25065656.194    25065656.137    25065660.367
 10  4 10  0 21  0.0000000  0  9G 2G29G12G 4G13G10G 5G30G15
 -24297294.63049 -18903731.51848  20165248.546    20165248.439    20165248.838
  -6691074.48149  -5187066.95345  23413423.265    23413423.244    23413426.443
  -4259767.52449  -3281434.71045  24354020.085    24354022.201    24354024.374
 -10267429.00149  -7946380.96846  22487635.933    22487636.673    22487639.891
  -4034870.46849  -3114886.25045  23783571.198    23783571.536    23783574.673
 -24032244.87649 -18678903.92647  20114245.276    20114244.688    20114248.118
 -25698750.18649 -19973745.91347  20555465.809    20555466.607    20555468.437
  -4979648.49249  -3850522.56145  24127645.617    24127646.668    24127649.889
  -2843125.09049  -2185863.01245  25043741.296    25043741.129    25043744.599
 10  4 10  0 21 30.0000000  0  9G 2G29G12G 4G13G10G 5G30G15
 -24303387.03149 -18908478.85948  20164089.251    20164089.231    20164089.622
  -6779978.68149  -5256342.94745  23396505.263    23396505.266    23396508.568
  -4183108.35049  -3221700.33945  24368608.017    24368609.053    24368610.448
 -10194392.08449  -7889469.13546  22501534.383    22501535.171    22501538.446
  -3950666.53449  -3049272.85945  23799594.703    23799595.773    23799598.331
 -24009287.41149 -18661014.99847  20118613.930    20118613.504    20118616.612
 -25727738.17649 -19996333.95747  20549949.602    20549950.096    20549952.154
  -4924900.56849  -3807861.89145  24138063.861    24138064.036    24138067.338
  -2958308.74149  -2275616.36745  25021822.368    25021823.332    25021827.760
 10  4 10  0 22  0.0000000  0  9G 2G29G12G 4G13G10G 5G30G15
 -24309140.41149 -18912962.02448  20162994.431    20162994.389    20162994.737
  -6868600.51949  -5325398.91246  23379641.164    23379641.971    23379644.559
  -4106286.11949  -3161838.91045  24383226.895    24383226.454    24383230.590
 -10121166.84149  -7832410.55146  22515468.757    22515469.885    22515472.340
  -3866068.21549  -2983352.16445  23815693.187    23815693.458    23815695.994
 -23985923.78449 -18642809.58547  20123059.864    20123059.366    20123062.673
 -25756342.22249 -20018622.82347  20544506.406    20544507.094    20544509.094
  -4869769.43649  -3764902.61645  24148554.998    24148554.643    24148559.588
  -3073510.51749  -2365383.92745  24999900.025    24999899.899    24999905.183
 10  4 10  0 22 30.0000000  0  9G 2G29G12G 4G13G10G 5G30G15
 -24314552.17249 -18917178.99148  20161964.612    20161964.542    20161964.932
  -6956935.98949  -5394231.73646  23362831.442    23362831.828    23362834.677
  -4029302.41349  -3101851.67645  24397876.436    24397877.761    24397879.440
 -10047751.96549  -7775204.20546  22529439.188    22529438.834    22529443.076
  -3781076.63549  -2917125.00945  23831866.669    23831866.392    23831869.720
 -23962153.62149 -18624287.38847  20127583.187    20127582.724    20127585.932
 -25784561.24649 -20040611.67047  20539136.518    20539137.001    20539139.184
  -4814256.16649  -3721645.55745  24159118.915    24159118.191    24159123.381
  -3188726.14349  -2455162.25145  24977975.170    24977974.278    24977979.585
 10  4 10  0 23  0.0000000  0  9G 2G29G12G 4G13G10G 5G30G15
 -24319622.47249 -18921129.88848  20160999.795    20160999.630    20160999.960
  -7044983.38749  -5462840.07646  23346076.540    23346077.597    23346080.026
  -3952160.98249  -3041741.52145  24412556.176    24412556.769    24412559.961
  -9974148.64649  -7717851.02746  22543445.437    22543446.007    22543449.710
  -3695695.48349  -2850594.33445  23848114.267    23848115.473    23848117.118
 -23937979.36749 -18605450.31647  20132183.405    20132182.920    20132186.331
 -25812396.42149 -20062301.41847  20533839.634    20533840.148    20533842.262
  -4758364.13949  -3678093.37445  24169754.931    24169754.797    24169759.596
  -3303954.26849  -2544950.36645  24956047.814    24956047.038    24956052.467
 10  4 10  0 23 30.0000000  0  9G 2G29G12G 4G13G10G 5G30G15
 -24324350.49549 -18924814.07548  20160100.075    20160100.043    20160100.444
  -7132740.58049  -5531222.29146  23329376.939    23329377.328    23329379.811
  -3874865.44149  -2981511.28145  24427264.989    24427264.527    24427270.252
  -9900357.97149  -7660351.87446  22557487.417    22557488.346    22557491.409
  -3609927.84449  -2783762.45845  23864435.377    23864436.265    23864440.099
 -23913403.31049 -18586300.15147  20136860.057    20136859.442    20136862.984
 -25839848.55749 -20083692.69047  20528615.623    20528616.115    20528618.130
  -4702096.72949  -3634248.66945  24180462.388    24180463.204    24180467.190
  -3419192.70049  -2634746.47545  24934118.505    24934119.228    24934122.337
 10  4 10  0 24  0.0000000  0  9G 2G29G12G 4G13G10G 5G30G15
 -24328734.37949 -18928230.10848  20159265.838    20159265.631    20159266.113
  -7220203.95749  -5599375.56446  23312733.179    23312733.241    23312736.478
  -3797417.99349  -2921162.68045  24442002.774    24442002.953    24442006.697
  -9826379.01749  -7602705.98746  22571565.209    22571565.340    22571568.830
  -3523775.42049  -2716630.78945  23880829.580    23880829.696    23880833.504
 -23888426.39349 -18566837.63547  20141613.025    20141612.592    20141615.838
 -25866917.16149 -20104785.11247  20523464.636    20523465.141    20523467.593
  -4645455.98249  -3590113.06245  24191240.653    24191241.042    24191245.404
  -3534438.25749  -2724548.14745  24912187.936    24912187.851    24912193.154
 10  4 10  0 24 30.0000000  0  9G 2G29G12G 4G13G10G 5G30G15
 -24332773.97049 -18931377.85748  20158497.149    20158496.993    20158497.440
  -7307371.85149  -5667298.58546  23296145.683    23296145.964    23296149.184
  -3719821.87949  -2860698.25045  24456768.936    24456769.831    24456771.457
  -9752212.94049  -7544914.29346  22585678.520    22585679.390    22585683.086
  -3437241.84049  -2649202.07145  23897296.416    23897296.546    23897299.491
 -23863050.21249 -18547063.99747  20146442.010    20146441.469    20146444.843
 -25893602.83249 -20125579.14148  20518386.541    20518387.076    20518389.268
  -4588445.20149  -3545689.14145  24202089.428    24202090.621    24202094.141
  -3649689.00949  -2814353.84945  24890256.383    24890257.164    24890261.274
 10  4 10  0 25  0.0000000  0  9G 2G29G12G 4G13G10G 5G30G15
 -24336467.69949 -18934256.10548  20157794.271    20157794.429    20157794.465
  -7394241.43449  -5734989.16446  23279614.917    23279615.647    23279618.597
  -3642080.08949  -2800120.31145  24471562.833    24471562.010    24471565.073
  -9677859.66349  -7486976.73246  22599827.529    22599827.885    22599831.825
  -3350329.28249  -2581478.08145  23913835.464    23913833.428    23913838.711
 -23837276.02549 -18526980.22747  20151346.665    20151346.073    20151349.417
 -25919906.32149 -20146075.37548  20513381.214    20513381.561    20513383.807
  -4531066.75649  -3500978.71645  24213008.445    24213009.213    24213013.422
  -3764942.13249  -2904161.39545  24868324.225    24868323.478    24868328.891
 10  4 10  0 25 30.0000000  0  9G 2G29G12G 4G13G10G 5G30G15
 -24339815.69949 -18936864.94748  20157157.203    20157157.160    20157157.580
  -7480810.87749  -5802445.86346  23263141.334    23263141.542    23263144.217
  -3564196.51749  -2739431.86245  24486383.580    24486385.308    24486385.725
  -9603320.48749  -7428894.31746  22614011.877    22614012.475    22614016.358
  -3263041.79349  -2513461.92345  23930445.883    23930446.247    23930449.278
 -23811106.62449 -18506588.49347  20156326.507    20156325.986    20156329.429
 -25945828.83449 -20166274.73548  20508448.297    20508448.716    20508451.077
  -4473325.23749  -3455985.37345  24223996.333    24223997.895    24223999.564
  -3880196.35449  -2993969.79945  24846391.776    24846391.951    24846396.730
 10  4 10  0 26  0.0000000  0  9G 2G29G12G 4G13G10G 5G30G15
 -24342815.94849 -18939202.81848  20156586.293    20156586.086    20156586.595
  -7567076.57649  -5869665.87946  23246725.659    23246726.136    23246728.437
  -3486173.30749  -2678634.60445  24501230.946    24501229.921    24501233.743
  -9528594.72649  -7370666.49946  22628231.667    22628232.381    22628236.143
  -3175380.94849  -2445154.84645  23947127.237    23947127.778    23947129.955
 -23784542.11249 -18485888.88247  20161381.612    20161381.056    20161384.402
 -25971369.56049 -20186176.60348  20503588.075    20503588.631    20503590.708
  -4415222.04049  -3410710.19045  24235052.978    24235053.402    24235056.917
  -3995447.78049  -3083775.99645  24824460.232    24824461.173    24824464.754
 10  4 10  0 26 30.0000000  0  9G 2G29G12G 4G13G10G 5G30G15
 -24345468.12549 -18941269.46548  20156081.600    20156081.445    20156081.970
  -7653036.68249  -5936647.77946  23230368.077    23230368.231    23230370.988
  -3408014.45049  -2617731.65545  24516104.017    24516105.413    24516109.104
  -9453683.66349  -7312294.30246  22642486.946    22642487.602    22642491.229
  -3087350.17949  -2376559.51845  23963878.970    23963879.581    23963881.907
 -23757584.90149 -18464883.27847  20166511.458    20166510.925    20166514.220
 -25996529.72749 -20205781.93548  20498800.248    20498800.586    20498802.741
  -4356761.10049  -3365156.25645  24246177.765    24246178.280    24246180.442
  -4110695.17249  -3173579.08945  24802529.450    24802529.556    24802534.391
 10  4 10  0 27  0.0000000  0  9G 2G29G12G 4G13G10G 5G30G15
 -24347771.98249 -18943064.68548  20155643.216    20155643.119    20155643.531
  -7738689.50449  -6003390.23346  23214068.844    23214069.054    23214072.025
  -3329723.37749  -2556725.67145  24531002.467    24531001.621    24531007.411
  -9378588.10149  -7253778.32546  22656777.161    22656777.629    22656780.622
  -2998952.98549  -2307678.66845  23980700.385    23980701.206    23980702.514
 -23730237.11749 -18443573.32247  20171715.550    20171714.962    20171718.423
 -26021310.12749 -20225091.33448  20494084.661    20494085.120    20494087.243
  -4297945.40049  -3319325.89945  24257369.890    24257370.492    24257372.536
  -4225936.35249  -3263377.36345  24780599.843    24780601.087    24780604.205
 10  4 10  0 27 30.0000000  0  9G 2G29G12G 4G13G10G 5G30G15
 -24349724.72049 -18944586.31348  20155271.625    20155271.556    20155272.002
  -7824030.45149  -6069889.67246  23197828.967    23197829.207    23197832.532
  -3251301.11049  -2495617.50445  24545925.568    24545925.499    24545930.839
  -9303306.71449  -7195117.56946  22671102.732    22671102.612    22671106.528
  -2910190.16349  -2238512.89645  23997591.551    23997591.453    23997596.339
 -23702498.61249 -18421958.91547  20176994.014    20176993.438    20176996.638
 -26045709.52549 -20244103.85448  20489441.627    20489441.994    20489444.142
  -4238776.16549  -3273220.03545  24268629.544    24268629.737    24268634.554
  -4341166.90949  -3353167.33145  24758672.296    24758673.487    24758677.016
 10  4 10  0 28  0.0000000  0  9G 2G29G12G 4G13G10G 5G30G15
 -24351326.24849 -18945834.26848  20154966.889    20154966.787    20154967.241
  -7909057.50649  -6136144.50546  23181648.839    23181649.528    23181652.043
  -3172751.57549  -2434410.09445  24560872.869    24560874.261    24560877.488
  -9227840.26249  -7136312.59246  22685463.550    22685463.930    22685468.363
  -2821065.27649  -2169065.02145  24014551.530    24014551.882    24014553.913
 -23674371.23049 -18400041.48047  20182346.455    20182346.023    20182349.151
 -26069729.01449 -20262820.33548  20484870.875    20484871.389    20484873.586
  -4179256.83549  -3226841.41945  24279955.635    24279955.357    24279960.018
  -4456385.09149  -3442947.69645  24736747.268    24736747.086    24736751.505
 10  4 10  0 28 30.0000000  0  9G 2G29G12G 4G13G10G 5G30G15
 -24352576.84949 -18946808.78048  20154728.929    20154728.812    20154729.373
  -7993770.04449  -6202154.27446  23165528.678    23165529.328    23165531.759
  -3094079.29949  -2373107.08645  24575843.689    24575843.857    24575849.205
  -9152191.12649  -7077365.27746  22699859.098    22699859.574    22699863.058
  -2731582.71049  -2099338.42445  24031579.590    24031578.384    24031584.255
 -23645858.85049 -18377824.05747  20187772.235    20187771.846    20187775.145
 -26093370.84549 -20281242.54648  20480372.026    20480372.403    20480374.722
  -4119392.06749  -3180193.58245  24291347.743    24291349.119    24291353.436
  -4571590.20549  -3532717.86245  24714824.542    24714824.433    24714829.403
 10  4 10  0 29  0.0000000  0  9G 2G29G12G 4G13G10G 5G30G15
 -24353473.57049 -18947507.53448  20154558.300    20154558.230    20154558.519
  -8078163.12749  -6267915.10146  23149469.283    23149469.536    23149472.795
  -3015285.18949  -2311709.13945  24590837.722    24590838.367    24590842.648
  -9076357.24149  -7018274.00246  22714289.880    22714289.994    22714294.056
  -2641743.04049  -2029333.54245  24048675.508    24048674.619    24048679.158
 -23616960.45749 -18355305.83747  20193271.443    20193270.969    20193274.180
 -26116633.03649 -20299368.92948  20475945.348    20475945.698    20475948.028
  -4059182.30749  -3133276.92945  24302805.555    24302806.437    24302806.640
  -4686777.49849  -3622474.11445  24692904.996    24692906.157    24692909.230
 10  4 10  0 29 30.0000000  0  9G 2G29G12G 4G13G10G 5G30G15
 -24354016.64049 -18947930.72248  20154455.012    20154454.921    20154455.416
  -8162235.20849  -6333425.80546  23133470.806    23133471.171    23133473.569
  -2936373.61249  -2250219.67645  24605854.261    24605854.851    24605858.182
  -9000340.04949  -6959039.88746  22728755.518    22728755.430    22728759.093
  -2551550.05449  -1959053.37945  24065838.702    24065838.517    24065842.340
 -23587678.57349 -18332488.79847  20198843.578    20198842.972    20198846.498
 -26139517.24349 -20317200.77448  20471590.597    20471591.002    20471593.237
  -3998631.94549  -3086094.91045  24314328.047    24314328.391    24314332.483
  -4801945.31049  -3712215.20145  24670989.176    24670989.649    24670993.207
 10  4 10  0 30  0.0000000  0  9G 2G29G12G 4G13G10G 5G30G15
 -24354203.68749 -18948076.48748  20154419.378    20154419.366    20154419.766
  -8245982.27649  -6398683.25446  23117534.236    23117534.594    23117536.968
  -2857345.79649  -2188639.63145  24620892.918    24620893.700    24620897.327
  -8924138.33549  -6899662.00046  22743256.187    22743256.511    22743260.784
  -2461005.10549  -1888498.95745  24083068.798    24083069.448    24083073.101
 -23558013.58649 -18309373.23747  20204488.621    20204488.124    20204491.497
 -26162022.33349 -20334737.21548  20467308.002    20467308.617    20467310.488
  -3937742.20749  -3038648.40045  24325914.981    24325915.789    24325920.179
  -4917089.61649  -3801937.96645  24649077.880    24649078.388    24649080.907
 10  4 10  0 30 30.0000000  0  9G 2G29G12G 4G13G10G 5G30G15
 -24354034.89649 -18947944.97948  20154451.488    20154451.444    20154451.997
  -8329403.36449  -6463686.68146  23101659.736    23101659.714    23101662.356
  -2778206.20749  -2126972.49745  24635952.829    24635954.044    24635957.788
  -8847754.21249  -6840141.96946  22757791.757    22757792.338    22757795.536
  -2370112.65349  -1817673.75745  24100365.235    24100365.284    24100369.463
 -23527968.53149 -18285961.51947  20210206.041    20210205.586    20210208.952
 -26184150.33749 -20351979.81548  20463097.178    20463097.672    20463099.708
  -3876517.78649  -2990941.11045  24337565.580    24337565.004    24337568.492
  -5032209.83149  -3891641.94545  24627171.144    24627171.444    24627175.934
 10  4 10  0 31  0.0000000  0  9G 2G29G12G 4G13G10G 5G30G15
 -24353509.52649 -18947535.61448  20154551.488    20154551.604    20154551.788
  -8412496.01949  -6528434.19546  23085847.775    23085848.180    23085850.394
  -2698957.88049  -2065220.62345  24651033.278    24651034.624    24651037.759
  -8771188.10049  -6780480.12346  22772361.809    22772362.312    22772366.180
  -2278875.55049  -1746579.97045  24117727.215    24117726.206    24117731.365
 -23497544.96349 -18262254.85247  20215995.492    20215994.848    20215998.106
 -26205901.90749 -20368929.08948  20458957.987    20458958.438    20458960.536
  -3814961.54049  -2942975.23745  24349279.329    24349279.485    24349285.576
  -5147303.13649  -3981324.97245  24605269.274    24605269.027    24605273.454
 10  4 10  0 31 30.0000000  0  9G 2G29G12G 4G13G10G 5G30G15
 -24352625.84149 -18946847.04348  20154719.642    20154719.428    20154720.057
  -8495256.50849  -6592922.87846  23070098.918    23070098.403    23070102.089
  -2619603.11649  -2003385.79945  24666134.312    24666135.380    24666139.568
  -8694439.18249  -6720675.84346  22786966.673    22786967.091    22786970.667
  -2187295.58649  -1675219.03445  24135154.302    24135155.180    24135157.014
 -23466743.35649 -18238253.61847  20221856.845    20221856.120    20221859.963
 -26227276.35449 -20385584.50448  20454890.528    20454890.854    20454893.246
  -3753075.35049  -2894752.31844  24361055.710    24361056.681    24361057.842
  -5262366.15649  -4070984.39945  24583373.415    24583373.655    24583377.194
 10  4 10  0 32  0.0000000  0  9G 2G29G12G 4G13G10G 5G30G15
 -24351383.67649 -18945879.13348  20154956.008    20154955.844    20154956.386
  -8577683.33049  -6657151.54446  23054413.548    23054414.341    23054416.508
  -2540145.65249  -1941470.96245  24681254.718    24681254.123    24681260.732
  -8617508.82449  -6660730.16146  22801606.083    22801606.107    22801609.810
  -2095376.15249  -1603593.56045  24152645.965    24152646.421    24152650.651
 -23435566.17349 -18213959.72047  20227789.661    20227789.103    20227792.558
 -26248275.16849 -20401947.21648  20450894.614    20450895.250    20450897.179
  -3690862.93349  -2846275.09144  24372894.418    24372895.186    24372901.645
  -5377397.21949  -4160618.93445  24561483.695    24561483.379    24561488.042
 10  4 10  0 32 30.0000000  0  9G 2G29G12G 4G13G10G 5G30G15
 -24349782.41149 -18944631.41048  20155260.711    20155260.703    20155261.219
  -8659774.27849  -6721118.51146  23038792.112    23038792.456    23038794.721
  -2460589.19849  -1879479.00645  24696393.921    24696394.872    24696398.119
  -8540397.59449  -6600643.55246  22816279.903    22816280.108    22816284.544
  -2003120.63949  -1531706.23745  24170201.474    24170200.768    24170204.494
 -23404015.50349 -18189374.79447  20233793.526    20233793.107    20233796.508
 -26268899.16849 -20418017.86748  20446970.002    20446970.517    20446972.608
  -3628327.68749  -2797546.46745  24384794.562    24384796.796    24384797.779
  -5492394.18549  -4250226.90345  24539600.625    24539600.298    24539605.269
 10  4 10  0 33  0.0000000  0  9G 2G29G12G 4G13G10G 5G30G15
 -24347820.21849 -18943102.44248  20155634.136    20155634.035    20155634.639
  -8741525.83649  -6784821.01146  23023235.397    23023235.566    23023238.544
  -2380935.12349  -1817410.95645  24711551.652    24711551.359    24711556.063
  -8463105.01449  -6540415.63746  22830988.237    22830988.166    22830991.929
  -1910530.78849  -1459558.36345  24187820.679    24187821.849    24187826.376
 -23372091.69149 -18164499.10847  20239868.464    20239867.741    20239871.378
 -26289147.82649 -20433796.04948  20443116.839    20443117.524    20443119.370
  -3565471.96949  -2748568.01845  24396755.623    24396755.398    24396759.507
  -5607353.38749  -4339805.45945  24517724.647    24517725.162    24517729.401
 10  4 10  0 33 30.0000000  0  9G 2G29G12G 4G13G10G 5G30G15
 -24345496.78049 -18941291.98448  20156076.266    20156076.289    20156076.675
  -8822936.07749  -6848257.55046  23007743.585    23007744.120    23007746.841
  -2301187.50349  -1755270.00345  24726727.048    24726728.142    24726731.802
  -8385632.38749  -6480047.42046  22845730.852    22845731.839    22845735.417
  -1817610.22049  -1387152.79744  24205502.938    24205504.838    24205505.975
 -23339797.33049 -18139334.68447  20246013.936    20246013.457    20246016.792
 -26309022.40249 -20449282.73148  20439334.841    20439335.433    20439337.298
  -3502299.23349  -2699342.53945  24408777.064    24408777.555    24408781.981
  -5722273.32649  -4429353.40545  24495856.135    24495856.382    24495860.719
 10  4 10  0 34  0.0000000  0  9G 2G29G12G 4G13G10G 5G30G15
 -24342811.54449 -18939199.61148  20156587.273    20156587.345    20156587.719
  -8904002.98449  -6911426.56346  22992317.067    22992317.100    22992319.568
  -2221349.62249  -1693058.74145  24741919.766    24741921.864    24741923.736
  -8307980.27149  -6419539.34146  22860507.576    22860507.650    22860512.248
  -1724362.16949  -1314492.02444  24223247.527    24223246.975    24223251.504
 -23307134.23949 -18113882.93847  20252229.546    20252229.084    20252232.369
 -26328523.91549 -20464478.71848  20435623.855    20435624.452    20435626.343
  -3438812.74949  -2649872.58945  24420857.966    24420859.970    24420861.943
  -5837151.76549  -4518869.02845  24473995.618    24473995.156    24474000.692
 10  4 10  0 34 30.0000000  0  9G 2G29G12G 4G13G10G 5G30G15
 -24339764.13249 -18936825.01748  20157167.175    20157167.144    20157167.650
  -8984724.31749  -6974326.29346  22976956.262    22976956.904    22976959.087
  -2141424.94948  -1630779.82545  24757129.116    24757129.346    24757132.057
  -8230149.55649  -6358892.08946  22875318.255    22875318.776    22875323.074
  -1630789.77549  -1241578.56644  24241053.838    24241055.546    24241057.710
 -23274104.52449 -18088145.51247  20258514.896    20258514.442    20258517.536
 -26347653.20049 -20479384.66148  20431983.716    20431984.282    20431986.199
  -3375016.36449  -2600161.20145  24432997.850    24432997.038    24433003.323
  -5951986.32349  -4608350.47445  24452143.371    24452144.033    24452146.296
 10  4 10  0 35  0.0000000  0 10G 2G29G12G 4G13G10G 5G30G 7G15
 -24336352.70149 -18934166.77048  20157816.375    20157816.284    20157816.903
  -9065096.66149  -7036954.07146  22961661.939    22961662.302    22961665.005
  -2061415.96649  -1568435.20645  24772354.249    24772352.597    24772359.354
  -8152139.53049  -6298105.11646  22890163.165    22890164.019    22890167.097
  -1536894.72249  -1168413.67744  24258921.511    24258921.678    24258926.004
 -23240708.90349 -18062122.96047  20264869.873    20264869.203    20264872.691
 -26366409.52749 -20493999.98448  20428414.510    20428415.013    20428417.037
  -3310911.61749  -2550209.46844  24445196.517    24445197.662    24445201.938
  -1784720.87849  -1352668.87644  25013909.157    25013908.212    25013914.644
  -6066773.57149  -4697795.07945  24430300.189    24430301.005    24430304.605
 10  4 10  0 35 30.0000000  0 10G 2G29G12G 4G13G10G 5G30G 7G15
 -24332575.90649 -18931223.82248  20158535.055    20158535.007    20158535.467
  -9145117.43049  -7099307.90346  22946434.485    22946434.644    22946437.526
  -1981324.84349  -1506026.62845  24787595.057    24787596.114    24787599.634
  -8073950.52249  -6237178.67846  22905042.073    22905042.719    22905046.303
  -1442680.37449  -1094999.96444  24276849.882    24276850.376    24276852.515
 -23206948.49249 -18035816.14947  20271294.263    20271293.545    20271297.142
 -26384793.70249 -20508325.31348  20424916.144    20424916.734    20424918.524
  -3246501.33448  -2500019.71344  24457453.572    24457455.036    24457457.684
  -1832992.82949  -1390283.36445  25004723.935    25004724.160    25004728.289
  -6181511.02849  -4787200.84445  24408466.347    24408466.370    24408470.582
 10  4 10  0 36  0.0000000  0 10G 2G29G12G 4G13G10G 5G30G 7G15
 -24328433.10349 -18927995.67348  20159323.392    20159323.341    20159323.930
  -9224783.56649  -7161385.40546  22931274.422    22931274.859    22931277.548
  -1901154.67549  -1443556.43145  24802851.051    24802851.473    24802854.536
  -7995582.64549  -6176112.86146  22919955.063    22919955.175    22919959.055
  -1348148.88649  -1021339.13744  24294838.616    24294839.932    24294841.781
 -23172824.66449 -18009226.16547  20277787.802    20277786.960    20277790.626
 -26402806.03849 -20522360.89648  20421488.492    20421489.027    20421490.849
  -3181788.66649  -2449594.27844  24469768.183    24469769.551    24469771.907
  -1880909.96949  -1427621.37045  24995605.242    24995604.623    24995609.197
  -6296195.42949  -4876565.28545  24386642.449    24386641.779    24386646.988
 10  4 10  0 36 30.0000000  0 10G 2G29G12G 4G13G10G 5G30G 7G15
 -24323923.58449 -18924481.77648  20160181.544    20160181.497    20160182.136
  -9304092.99149  -7223184.94646  22916182.245    22916182.947    22916185.064
  -1820908.37649  -1381026.90245  24818121.342    24818121.012    24818125.504
  -7917036.65649  -6114908.26246  22934901.891    22934903.097    22934906.018
  -1253303.16349   -947433.45244  24312887.141    24312888.278    24312890.788
 -23138339.55149 -17982354.66247  20284350.100    20284349.567    20284352.891
 -26420447.16249 -20536107.22548  20418131.482    20418131.831    20418133.923
  -3116776.75749  -2398935.68445  24482139.568    24482142.016    24482144.701
  -1928470.03449  -1464681.13845  24986554.705    24986555.238    24986558.799
  -6410824.85549  -4965886.83245  24364829.003    24364829.480    24364833.495
 10  4 10  0 37  0.0000000  0 10G 2G29G12G 4G13G10G 5G30G 7G15
 -24319043.65749 -18920679.24948  20161110.192    20161109.924    20161110.539
  -9383040.96349  -7284702.84546  22901159.043    22901159.507    22901162.604
  -1740586.87149  -1318438.77845  24833406.047    24833406.261    24833411.033
  -7838310.43049  -6053563.21246  22949883.010    22949883.876    22949887.554
  -1158143.53949   -873283.18144  24330995.532    24330995.532    24331001.209
 -23103492.53149 -17955201.14547  20290981.274    20290980.676    20290984.042
 -26437715.53449 -20549563.10448  20414845.386    20414845.986    20414848.050
  -3051466.19749  -2348044.35344  24494567.872    24494567.454    24494571.372
  -1975668.25949  -1501458.92345  24977573.199    24977574.235    24977577.416
  -6525394.46549  -5055161.77545  24343027.034    24343026.653    24343031.663
 10  4 10  0 37 30.0000000  0 10G 2G29G12G 4G13G10G 5G30G 7G15
 -24313796.63449 -18916590.67748  20162108.640    20162108.473    20162109.300
  -9461628.52349  -7345939.89646  22886204.366    22886204.211    22886207.476
  -1660197.01149  -1255797.41545  24848703.726    24848704.250    24848707.663
  -7759408.42049  -5992081.19046  22964897.705    22964898.831    22964902.887
  -1062677.15949   -798893.87344  24349162.601    24349164.064    24349165.307
 -23068288.93649 -17927769.78947  20297680.325    20297679.629    20297683.012
 -26454615.43649 -20562731.86848  20411629.475    20411629.993    20411632.026
  -2985863.97649  -2296925.83844  24507051.386    24507054.709    24507055.767
  -2022505.96549  -1537955.85045  24968660.223    24968660.146    24968666.247
  -6639905.57649  -5144391.16645  24321236.176    24321236.388    24321240.853
 10  4 10  0 38  0.0000000  0 10G 2G29G12G 4G13G10G 5G30G 7G15
 -24308181.48449 -18912215.24848  20163177.189    20163177.143    20163177.704
  -9539852.98849  -7406894.01646  22871318.681    22871318.915    22871321.613
  -1579741.53049  -1193104.91145  24864013.935    24864014.831    24864018.607
  -7680330.89149  -5930462.40246  22979945.653    22979945.865    22979950.050
   -966906.56749   -724267.51744  24367387.067    24367386.919    24367391.165
 -23032730.12249 -17900061.62747  20304446.933    20304446.484    20304449.686
 -26471147.25549 -20575613.81048  20408483.552    20408484.180    20408486.209
  -2919972.63949  -2245581.98644  24519590.099    24519590.531    24519595.754
  -2068980.63049  -1574169.86345  24959816.404    24959815.999    24959820.143
  -6754355.17649  -5233572.62545  24299457.096    24299457.965    24299461.552
 10  4 10  0 38 30.0000000  0 10G 2G29G12G 4G13G10G 5G30G 7G15
 -24302196.97549 -18907552.00848  20164316.033    20164316.144    20164316.780
  -9617711.78649  -7467563.20146  22856502.658    22856503.052    22856505.547
  -1499222.98049  -1130363.24445  24879336.142    24879336.324    24879341.329
  -7601077.71649  -5868706.74446  22995027.061    22995027.314    22995031.859
   -870834.42449   -649406.19344  24385669.216    24385670.632    24385671.252
 -22996817.48049 -17872077.76447  20311280.840    20311280.223    20311283.747
 -26487311.20449 -20588209.10148  20405407.654    20405408.040    20405410.168
  -2853795.14249  -2194015.14745  24532183.362    24532183.013    24532190.339
  -2115089.54849  -1610098.85845  24951042.307    24951042.093    24951046.149
  -6868740.75649  -5322704.20845  24277690.129    24277690.904    24277694.335
 10  4 10  0 39  0.0000000  0 10G 2G29G12G 4G13G10G 5G30G 7G15
 -24295841.43949 -18902599.65148  20165525.470    20165525.327    20165526.063
  -9695201.81449  -7527945.03846  22841756.851    22841757.191    22841759.651
  -1418643.97449  -1067574.49345  24894669.819    24894669.929    24894673.985
  -7521648.88849  -5806814.21046  23010141.914    23010142.760    23010146.534
   -774462.77149   -574311.47744  24404007.889    24404007.587    24404011.202
 -22960552.05349 -17843818.99847  20318181.944    20318181.476    20318184.785
 -26503107.28049 -20600517.73748  20402401.774    20402402.471    20402404.347
  -2787334.00449  -2142227.30544  24544830.537    24544829.998    24544834.006
  -2160828.67048  -1645739.70945  24942338.363    24942339.268    24942342.760
  -6983058.87449  -5411783.21045  24255935.953    24255936.045    24255940.303
 10  4 10  0 39 30.0000000  0 10G 2G29G12G 4G13G10G 5G30G 7G15
 -24289114.64749 -18897358.00948  20166805.532    20166805.621    20166806.024
  -9772320.75649  -7588037.71146  22827081.570    22827082.200    22827084.755
  -1338007.61049  -1004741.01745  24910014.607    24910015.615    24910018.721
  -7442045.27349  -5744785.48546  23025290.100    23025290.913    23025295.090
   -677794.87349   -498985.91544  24422403.152    24422405.640    24422406.694
 -22923935.90749 -17815286.95147  20325149.764    20325149.192    20325152.695
 -26518536.42949 -20612540.45548  20399465.716    20399466.303    20399468.371
  -2720592.52249  -2090221.00745  24557530.948    24557533.164    24557538.200
  -2206197.07949  -1681091.70445  24933704.932    24933704.316    24933710.225
  -7097307.27249  -5500807.87645  24234195.233    24234196.145    24234199.496
 10  4 10  0 40  0.0000000  0 10G 2G29G12G 4G13G10G 5G30G 7G15
 -24282015.38749 -18891826.13148  20168156.485    20168156.486    20168156.987
