     2.11           OBSERVATION DATA    M (MIXED)           RINEX VERSION / TYPE
teqc  2011Oct11                         20140401 01:30:34UTCPGM / RUN BY / DATE
MSXP|IAx86-PII|bcc32 5.0|MSWin95->XP|486/DX+                COMMENT
teqc  2013Mar15                         20140310 00:05:09UTCCOMMENT
Linux 2.4.21-27.ELsmp|Opteron|gcc -static|Linux x86_64|=+   COMMENT
teqc  2013Mar15                         20140309 01:02:05UTCCOMMENT
teqc  2013Mar15     IGN-RGP             20140309 01:02:02UTCCOMMENT
   0.000      (antenna height)                              COMMENT
 +16.26230440 (latitude)                                    COMMENT
 -61.52753102 (longitude)                                   COMMENT
-025.112      (elevation)                                   COMMENT
BIT 2 OF LLI FLAGS DATA COLLECTED UNDER A/S CONDITION       COMMENT
97103M001 (COGO code)                                       COMMENT
ABMF                                                        MARKER NAME
97103M001                                                   MARKER NUMBER
Automatic           Institut Geographique National          OBSERVER / AGENCY
5118K75539          TRIMBLE NETR9       4.81                REC # / TYPE / VERS
1441112501          TRM57971.00     NONE                    ANT # / TYPE
  2919786.4480 -5383745.1780  1774604.7340                  APPROX POSITION XYZ
        0.0000        0.0000        0.0000                  ANTENNA: DELTA H/E/N
     1     1                                                WAVELENGTH FACT L1/2
    21    L1    L2    C1    P1    P2    D1    D2    S1    S2# / TYPES OF OBSERV
          L5    C5    D5    S5    L7    C7    D7    S7    L8# / TYPES OF OBSERV
          C8    D8    S8                                    # / TYPES OF OBSERV
    30.0000                                                 INTERVAL
    16                                                      LEAP SECONDS
 SNR is mapped to RINEX snr flag value [0-9]                COMMENT
  L1 & L2: min(max(int(snr_dBHz/6), 0), 9)                  COMMENT
Forced Modulo Decimation to 30 seconds                      COMMENT
Forced Modulo Decimation to 30 seconds                      COMMENT
  2014     3     9     0     0    0.0000000     GPS         TIME OF FIRST OBS
                                                            END OF HEADER
 14  3  9  0  0  0.0000000  0 23G32R24G31R14G03R13R18R17G16R15G23R04
                                G13G27G11G20G19R05E19S33S38S35S20
 130842274.526 6 101955064.74943  24898491.016                    24898522.914
                                        37.000          19.300



 117804037.964 7  91625425.732 7  22029867.906    22029867.613    22029876.441
                                        42.000          43.100



 119485846.501 7  93105953.17945  22737400.336                    22737425.031
                                        44.600          32.400



 112248527.495 6  87304592.575 6  21057490.461    21057489.414    21057501.129
                                        41.000          38.900



 105062734.458 8  81867315.90946  19992695.773                    19992706.117
                                        50.900          40.500



 124823123.994 5  97084656.951 6  23375362.180    23375359.813    23375382.766
                                        34.300          38.800



 102529037.729 7  79745015.007 7  19227360.391    19227358.551    19227367.129
                                        45.800          44.400



 102777221.708 7  79938024.698 8  19206320.336    19206319.398    19206326.879
                                        47.800          49.500



 116199322.345 7  90545120.49845  22111933.680                    22111943.141
                                        45.700          33.600



 118534236.612 6  92193387.529 7  22182049.148    22182048.172    22182058.809
                                        40.400          42.100



 110908018.404 8  86421919.10846  21105071.961                    21105081.363
                                        48.700          39.100



 124488568.204 6  96824492.163 6  23247376.141    23247374.102    23247393.121
                                        40.200          40.600



 120465483.104 7  93869290.07944  22923807.258                    22923817.918
                                        45.200          27.900



 106748460.769 8  83180895.38647  20313471.242                    20313482.836
                                        50.700          44.000    79714999.078 9
  20313482.578                          55.400


 126900876.486 7  98883936.14644  24148422.008                    24148446.418
                                        42.400          24.700



 132211369.820 6 103021879.93743  25159012.594                    25159038.383
                                        37.600          18.300



 108535506.174 7  84573351.26346  20653546.500                    20653555.977
                                        47.800          41.300



 125520029.665 6  97626712.730 6  23481114.695    23481113.887    23481127.102
                                        40.500          38.900



 141858631.355 7                  26994814.195
                                        44.000                   105933423.901 7
  26994840.313                          43.000   108696902.383 7  26994836.891
                        42.900   107315174.247 7  26994838.570
        46.700
 196199050.160 7                  37335434.031
                                        43.400                   146512178.056 7
  37335436.094                          45.200


 200637459.319 7                  38180034.703
                                        44.100                   149826631.708 7
  38180035.359                          47.300


 213735742.102 6                  40672538.016
                                        37.100                   159607843.752 6
  40672539.305                          38.700


 200905125.019 6                  38230984.594
                                        38.900



 14  3  9  0  0 30.0000000  0 22G32R24G31R14G03R18R17G16R15G23R04G13
                                G27G11G20G19R05E19S33S38S35S20
 130875634.571 6 101981060.31342  24904838.852                    24904870.121
     -1107.896        -863.326          37.700          17.800



 117912351.007 7  91709669.142 7  22050123.133    22050123.191    22050131.441
     -3616.641       -2812.952          42.700          43.300



 119527363.214 7  93138303.24845  22745301.234                    22745325.691
     -1388.985       -1082.309          45.000          33.500



 112227073.684 6  87287906.228 6  21053465.359    21053464.664    21053476.844
       711.897         553.707          40.600          39.400



 105052212.513 8  81859117.01546  19990693.641                    19990703.781
       342.250         266.682          51.100          40.400



 102535479.243 7  79750025.098 7  19228568.180    19228566.813    19228575.199
      -227.898        -177.255          45.700          44.900



 102778514.519 7  79939030.260 8  19206561.930    19206561.109    19206568.949
       -56.119         -43.651          47.600          50.000



 116233922.491 7  90572081.64845  22118517.531                    22118527.602
     -1152.820        -898.299          46.100          32.800



 118466561.310 6  92140751.240 6  22169384.156    22169383.648    22169393.852
      2257.772        1756.049          40.400          41.400



 110887240.356 8  86405728.42246  21101118.313                    21101127.469
       683.301         532.438          49.600          39.000



 124565463.416 6  96884298.968 6  23261736.938    23261735.488    23261753.723
     -2562.538       -1993.083          40.400          40.200



 120389242.173 7  93809881.63645  22909299.227                    22909310.641
      2534.620        1975.025          45.600          30.000



 106777103.744 8  83203214.59747  20318921.852                    20318932.984
      -962.883        -750.301          51.100          44.400    79736388.322 9
  20318933.137        -719.033          55.300


 126800744.106 7  98805911.60043  24129367.742                    24129390.941
      3338.745        2601.596          42.600          22.600



 132240129.130 6 103044289.15043  25164484.992                    25164511.086
      -956.076        -744.975          36.700          18.600



 108482405.936 7  84531974.52946  20643441.477                    20643450.910
      1761.280        1372.423          47.500          41.500



 125553581.419 6  97652808.502 6  23487392.203    23487390.219    23487404.582
     -1124.741        -874.796          39.000          39.600



 141913569.162 7                  27005268.539
     -1829.048                          43.100                   105974448.295 7
  27005294.617       -1365.830          42.500   108738997.051 7  27005291.102
     -1401.463          42.400   107356733.779 7  27005293.469       -1383.644
        46.400
 196198924.892 7                  37335410.219
         4.133                          44.300                   146512085.065 7
  37335411.391           3.066          45.400


 200637564.136 7                  38180054.234
        -3.537                          44.700                   149826709.739 7
  38180054.703          -2.569          47.200


 213735786.252 6                  40672545.609
        -1.578                          36.900                   159607876.068 6
  40672548.398          -1.161          39.300


 200905093.067 6                  38230984.594
         1.114                          38.300



 14  3  9  0  1  0.0000000  0 24G32R24G31R14G03R13R18R17G16R15G23R04
                                G13G27G11G20G19R05E19S33S38S35S20S36
 130908737.442 6 102006855.51043  24911138.250                    24911169.258
     -1099.268        -856.602          38.200          18.600



 118021046.574 7  91794210.105 7  22070450.961    22070450.902    22070458.180
     -3629.316       -2822.798          43.900          43.600



 119569195.813 7  93170899.46045  22753262.008                    22753286.633
     -1399.494       -1090.490          45.000          32.400



 112205820.577 6  87271375.961 6  21049479.570    21049477.820    21049489.523
       705.163         548.497          40.600          39.300



 105042215.563 8  81851327.20846  19988791.078                    19988801.152
       324.805         253.097          50.200          40.600



 124900765.079 6  97145042.224 6  23389901.570    23389900.023    23389919.508
     -1304.219       -1014.407          36.900          36.000



 102542739.121 7  79755671.711 7  19229929.484    19229927.645    19229936.246
      -255.158        -198.453          45.500          44.500



 102780613.627 7  79940662.952 8  19206953.977    19206953.156    19206960.473
       -82.946         -64.523          47.700          49.200



 116268489.203 7  90599016.74245  22125095.492                    22125105.449
     -1151.639        -897.376          47.100          34.000



 118398765.852 6  92088021.542 7  22156697.344    22156696.133    22156707.047
      2261.808        1759.181          39.700          42.400



 110867039.213 8  86389987.25346  21097273.688                    21097283.410
       664.091         517.476          48.800          39.700



 124642318.739 6  96944074.800 6  23276088.563    23276086.762    23276106.078
     -2561.125       -1991.972          39.400          40.100



 120313420.445 7  93750799.82944  22894871.172                    22894882.105
      2520.642        1964.134          46.200          29.400



 106806247.884 8  83225924.31947  20324468.000                    20324478.715
      -979.501        -763.249          51.200          43.900    79758151.812 9
  20324479.102        -731.443          55.300


 126700549.268 6  98727838.36543  24110299.734                    24110324.383
      3340.840        2603.230          41.900          23.600



 132268727.056 6 103066572.49443  25169927.578                    25169953.586
      -950.603        -740.730          37.700          18.300



 108429847.037 8  84491019.63546  20633440.078                    20633449.277
      1743.231        1358.355          48.000          41.100



 125587525.969 6  97679209.765 6  23493741.289    23493740.012    23493754.285
     -1137.752        -884.893          38.400          40.000



 141968368.214 7                  27015696.500
     -1824.366                          42.400                   106015369.012 7
  27015723.008       -1362.327          42.700   108780985.359 7  27015720.102
     -1397.870          43.000   107398188.294 7  27015722.043       -1380.102
        46.600
 196198801.011 7                  37335386.984
         4.185                          43.700                   146511992.225 7
  37335387.430           3.177          45.400


 200637669.817 7                  38180074.094
        -3.700                          44.100                   149826788.767 7
  38180074.703          -2.879          47.200


 213735831.304 5                  40672553.609
        -1.634                          35.700                   159607910.418 6
  40672556.727          -1.345          39.200


 200905057.710 6                  38230975.266
         1.414                          39.500



 211081528.571 6                  40167471.766
         1.872                          39.000



 14  3  9  0  1 30.0000000  0 23G32R24G31R14G03R13R18R17G16R15G23R04
                                G13G27G11G20G19R05E19S33S38S35S20
 130941582.332 6 102032449.66843  24917388.648                    24917418.270
     -1090.687        -849.887          38.100          19.000



 118130120.457 7  91879045.275 7  22090848.688    22090848.043    22090855.102
     -3641.911       -2832.597          43.700          43.100



 119611345.127 7  93203742.45245  22761283.953                    22761308.105
     -1410.103       -1098.759          44.900          33.700



 112184771.103 6  87255004.119 6  21045530.773    21045529.023    21045540.844
       698.296         543.107          41.200          39.600



 105032743.259 8  81843946.21746  19986988.516                    19986998.598
       307.252         239.414          49.900          41.300



 124940061.710 6                  23397259.891    23397257.992
     -1315.277                          36.000



 102550816.866 7  79761954.446 7  19231444.000    19231442.867    19231451.438
      -282.461        -219.689          45.600          44.800



 102783518.681 7  79942922.469 8  19207497.133    19207495.844    19207503.352
      -109.885         -85.457          47.900          49.300



 116303021.492 7  90625925.01645  22131666.898                    22131675.852
     -1150.552        -896.538          47.400          33.600



 118330852.026 6  92035199.788 7  22143987.023    22143986.750    22143998.059
      2265.639        1762.182          39.600          42.200



 110847415.213 8  86374695.81346  21093539.813                    21093549.008
       644.801         502.443          50.000          39.100



 124719130.683 6  97003816.815 6  23290433.797    23290431.875    23290451.410
     -2559.738       -1990.859          38.900          40.200



 120238020.145 7  93692046.40544  22880521.984                    22880533.715
      2506.489        1953.101          45.200          28.600



 106835891.620 8  83249023.34347  20330109.102                    20330119.727
      -996.197        -776.256          50.000          44.000    79780288.382 9
  20330120.113        -743.916          55.400


 126600294.293 7  98649718.28743  24091221.914                    24091245.918
      3342.737        2604.712          42.600          23.800



 132297161.975 5 103088728.85843  25175339.172                    25175365.379
      -945.267        -736.547          33.000          20.100



 108377831.209 8  84450487.89346  20623541.836                    20623550.844
      1725.052        1344.193          48.900          41.300



 125621860.142 6  97705914.049 6  23500164.438    23500162.805    23500177.008
     -1150.754        -895.012          39.900          39.400



 142023027.042 7                  27026098.531
     -1819.739                          42.100                   106056185.038 7
  27026125.535       -1358.872          42.100   108822866.224 7  27026121.828
     -1394.323          42.400   107439536.745 7  27026123.926       -1376.602
        46.600
 196198679.879 7                  37335363.219
         4.077                          43.100                   146511902.139 7
  37335363.875           3.005          45.700


 200637774.996 7                  38180093.672
        -3.526                          43.700                   149826867.824 7
  38180095.359          -2.666          47.500


 213735875.936 6                  40672562.813
        -1.476                          37.200                   159607944.148 6
  40672565.227          -1.037          39.300


 200905022.388 6                  38230970.234
         0.982                          38.900



 14  3  9  0  2  0.0000000  0 22G32R24G31R14G03R18R17G16R15G23R04G13
                                G27G11G20G19R05E19S33S38S35S20
 130974168.313 6 102057842.07843  24923588.758                    24923619.375
     -1081.992        -843.123          37.200          19.000



 118239569.088 7  91964171.962 7  22111315.703    22111314.352    22111322.523
     -3654.244       -2842.202          42.100          43.300



 119653811.844 7  93236832.78245  22769365.352                    22769389.547
     -1420.670       -1106.994          44.900          33.200



 112163928.702 6  87238793.283 6  21041620.539    21041618.672    21041631.445
       691.374         537.737          40.800          39.800



 105023795.094 8  81836973.66046  19985285.797                    19985295.984
       289.845         225.851          49.200          40.600



 102559712.624 7  79768873.423 7  19233113.336    19233110.910    19233119.383
      -309.696        -240.890          45.200          44.200



 102787229.541 7  79945808.745 8  19208190.398    19208189.461    19208197.387
      -136.649        -106.294          47.100          49.700



 116337518.836 7  90652806.05945  22138231.578                    22138240.957
     -1149.338        -895.592          46.300          33.600



 118262822.170 6  91982287.789 7  22131256.430    22131255.570    22131267.832
      2269.504        1765.161          40.000          42.600



 110828369.128 8  86359854.70446  21089915.375                    21089924.793
       625.547         487.435          48.900          39.000



 124795895.643 6  97063522.301 6  23304768.422    23304766.973    23304786.391
     -2558.049       -1989.626          36.900          38.700



 120163043.553 7  93633623.14544  22866254.648                    22866266.383
      2492.353        1942.087          44.800          28.400



 106866033.570 8  83272510.59147  20335845.094                    20335855.629
     -1012.739        -789.149          50.600          43.600    79802796.991 9
  20335855.844        -756.267          55.500


 126499981.856 7  98571553.43344  24072132.773                    24072156.305
      3344.638        2606.189          43.400          24.900



 132325432.325 6 103110756.96943  25180719.602                    25180747.070
      -939.680        -732.191          37.700          18.600



 108326359.865 7  84410380.42746  20613746.992                    20613755.645
      1706.923        1330.072          47.600          40.800



 125656581.023 6  97732919.124 6  23506658.656    23506658.551    23506673.277
     -1163.512        -904.961          39.300          40.000



 142077544.662 7                  27036473.398
     -1814.987                          43.200                   106096895.627 7
  27036500.266       -1355.329          42.400   108864638.890 7  27036496.746
     -1390.683          42.800   107480778.364 7  27036498.613       -1373.004
        46.600
 196198560.692 7                  37335340.563
         4.110                          42.400                   146511812.790 7
  37335342.813           3.136          45.200


 200637880.885 7                  38180114.297
        -3.760                          43.900                   149826946.248 7
  38180115.680          -2.826          47.600


 213735920.800 5                  40672572.625
        -1.679                          35.900                   159607977.085 6
  40672573.914          -1.400          39.900


 200904987.695 6                  38230960.531
         1.087                          39.000



 14  3  9  0  2 30.0000000  0 23G32R24G31R14G03R13R18R17G16R15G23R04
                                G13G27G11G20G19R05E19S33S38S35S20
 131006493.762 6 102083031.46343  24929739.016                    24929769.203
     -1073.295        -836.365          39.000          19.600



 118349387.837 6  92049586.493 7  22131851.977    22131851.566    22131859.457
     -3666.522       -2851.736          41.300          43.100



 119696595.726 7  93270170.24445  22777507.211                    22777532.191
     -1431.212       -1115.210          45.100          33.700



 112143295.647 6  87222745.293 6  21037749.977    21037748.578    21037760.457
       684.355         532.290          41.100          39.400



 105015369.996 8  81830408.67346  19983682.586                    19983692.781
       272.413         212.273          49.900          40.300



 125019527.399 6                  23412155.328    23412153.078
     -1336.474                          37.400



 102569425.349 7  79776427.784 7  19234933.984    19234932.496    19234940.797
      -336.860        -262.016          45.800          44.500



 102791745.329 7  79949321.051 8  19209034.102    19209032.813    19209040.211
      -163.464        -127.127          47.700          49.200



 116371980.054 7  90679658.94345  22144789.313                    22144798.461
     -1148.111        -894.634          46.700          34.200



 118194677.795 6  91929286.733 7  22118504.516    22118504.008    22118515.191
      2273.341        1768.150          40.400          42.100



 110809900.742 8  86345463.73546  21086401.305                    21086410.191
       606.313         472.457          49.000          39.100



 124872609.322 6  97123187.846 6  23319093.898    23319093.504    23319112.098
     -2556.218       -1988.185          38.200          38.700



 120088493.371 7  93575532.14544  22852068.570                    22852079.152
      2478.137        1931.010          44.600          28.000



 106896671.534 8  83296384.33547  20341675.195                    20341686.258
     -1029.217        -801.989          51.700          44.400    79825675.995 9
  20341686.410        -768.573          55.400


 126399614.197 7  98493345.53143  24053033.234                    24053055.742
      3346.488        2607.627          43.800          23.200



 132353535.729 5 103132654.97842  25186067.781                    25186095.656
      -934.088        -727.810          33.200          15.600



 108275434.304 7  84370698.24746  20604055.906                    20604065.039
      1688.709        1315.876          47.600          41.000



 125691685.116 6  97760222.237 6  23513227.203    23513225.688    23513238.973
     -1176.214        -914.818          40.200          38.800



 142131918.963 7                  27046821.023
     -1810.126                          43.400                   106137499.194 7
  27046847.801       -1351.699          43.000   108906301.749 7  27046844.051
     -1386.958          42.100   107521911.584 7  27046846.281       -1369.332
        46.700
 196198444.509 7                  37335319.578
         3.855                          42.900                   146511725.887 7
  37335320.398           2.838          45.800


 200637987.630 7                  38180134.172
        -3.587                          44.100                   149827025.624 7
  38180135.859          -2.801          47.300


 213735967.117 6                  40672579.563
        -1.399                          36.900                   159608012.778 6
  40672581.977          -1.063          39.000


 200904953.209 6                  38230954.016
         0.910                          38.800



 14  3  9  0  3  0.0000000  0 23G32R24G31R14G03R13R18R17G16R15G23R04
                                G13G27G11G20G19R05E19S33S38S35S20
 131038557.437 6 102108016.89143  24935840.227                    24935869.223
     -1064.585        -829.567          36.400          20.400



 118459572.484 7  92135285.651 7  22152457.672    22152457.379    22152464.922
     -3678.685       -2861.220          42.700          43.000



 119739697.740 7  93303755.58745  22785709.578                    22785734.680
     -1441.878       -1123.512          44.900          33.700



 112122874.995 6  87206862.490 6  21033919.555    21033917.805    21033929.754
       677.202         526.716          41.100          39.400



 105007467.482 8  81824250.89546  19982179.102                    19982188.820
       255.002         198.701          50.300          40.900



 125059844.546 6  97268827.702 5  23419691.930    23419690.266    23419708.941
     -1347.134       -1047.401          40.100          35.200



 102579954.590 7  79784617.230 7  19236908.414    19236907.047    19236915.637
      -364.168        -283.244          45.700          44.800



 102797065.636 7  79953459.107 8  19210028.180    19210027.711    19210035.328
      -190.323        -148.026          47.200          49.500



 116406403.987 7  90706482.77445  22151339.914                    22151348.770
     -1146.872        -893.664          44.300          34.200



 118126420.740 6  91876198.004 6  22105731.656    22105730.680    22105741.582
      2277.042        1771.034          40.100          41.800



 110792010.402 8  86331523.20446  21082996.703                    21083005.926
       587.031         457.430          49.600          39.300



 124949268.177 6  97182810.740 6  23333410.047    23333409.301    23333428.684
     -2554.401       -1986.690          40.100          39.500



 120014371.832 7  93517775.18744  22837963.586                    22837973.809
      2463.797        1919.847          45.400          27.400



 106927803.633 8  83320643.11747  20347599.367                    20347610.020
     -1045.683        -814.817          50.200          43.900    79848924.002 9
  20347610.527        -780.871          55.600


 126299193.312 7  98415096.15044  24033922.070                    24033946.242
      3348.173        2608.929          43.200          26.800



 132381470.673 6 103154421.67842  25191384.852                    25191411.844
      -928.449        -723.457          38.000          16.300



 108225055.660 8  84331442.23947  20594469.297                    20594478.523
      1670.463        1301.661          48.700          42.000



 125727168.830 6  97787820.611 6  23519864.617    23519862.867    23519876.879
     -1188.865        -924.675          38.500          39.400



 142186148.594 7                  27057140.367
     -1805.328                          42.100                   106177994.702 7
  27057168.031       -1348.113          43.000   108947853.754 7  27057164.047
     -1383.288          42.100   107562935.333 7  27057166.641       -1365.696
        46.600
 196198330.577 7                  37335297.734
         3.727                          42.800                   146511641.017 7
  37335298.156           2.815          45.700


 200638093.883 7                  38180154.297
        -3.628                          44.700                   149827105.268 7
  38180156.195          -2.761          46.900


 213736011.258 5                  40672587.047
        -1.329                          35.900                   159608045.211 6
  40672590.117          -0.863          39.200


 200904919.158 6                  38230948.578
         1.255                          38.900



 14  3  9  0  3 30.0000000  0 23G32R24G31R14G03R13R18R17G16R15G23R04
                                G13G27G11G20G19R05E19S33S38S35S20
 131070358.132 6 102132797.40943  24941890.164                    24941919.746
     -1055.790        -822.731          38.300          19.600



 118570119.080 6  92221266.304 7  22173129.961    22173128.258    22173137.547
     -3690.678       -2870.518          41.300          43.900



 119783117.980 7  93337588.89245  22793972.672                    22793997.875
     -1452.487       -1131.788          44.600          32.900



 112102669.582 6  87191147.128 6  21030128.164    21030127.469    21030139.273
       670.011         521.129          40.600          39.800



 105000086.996 8  81818499.90246  19980774.156                    19980784.656
       237.611         185.150          50.800          40.000



 125100422.883 5  97300243.859 5  23427290.828    23427288.813    23427307.906
     -1357.681       -1056.175          33.000          32.400



 102591299.184 7  79793440.846 7  19239036.711    19239034.402    19239042.770
      -391.294        -304.349          45.200          44.100



 102803189.713 7  79958222.328 8  19211172.422    19211171.836    19211179.473
      -217.065        -168.829          47.900          49.200



 116440789.731 7  90733276.84845  22157883.078                    22157892.605
     -1145.568        -892.654          47.000          33.200



 118058053.444 6  91823023.532 6  22092936.813    22092936.070    22092947.184
      2280.670        1773.876          40.200          41.900



 110774698.134 8  86318033.12046  21079702.320                    21079711.762
       567.765         442.412          49.800          39.400



 125025868.415 6  97242388.060 6  23347715.328    23347713.645    23347734.660
     -2552.375       -1985.144          40.500          39.600



 119940680.997 7  93460353.81244  22823940.672                    22823951.117
      2449.387        1908.608          45.300          28.800



 106959428.113 8  83345285.57147  20353617.336                    20353628.336
     -1062.058        -827.577          51.200          44.100    79872539.685 9
  20353628.781        -793.095          55.400


 126198721.692 7  98336807.24844  24014802.703                    24014826.828
      3349.861        2610.254          42.300          26.000



 132409234.872 6 103176055.31642  25196668.719                    25196696.094
      -922.702        -718.994          37.500          17.800



 108175225.001 7  84292613.24446  20584987.070                    20584996.051
      1652.210        1287.434          47.800          41.300



 125763028.906 6  97815711.666 6  23526573.320    23526571.453    23526585.348
     -1201.377        -934.411          39.400          38.900



 142240231.920 6                  27067432.617
     -1800.433                          41.300                   106218380.910 7
  27067460.625       -1344.452          42.600   108989293.599 7  27067456.922
     -1379.529          42.800   107603848.363 7  27067458.973       -1361.994
        46.900
 196198218.233 7                  37335275.969
         3.785                          43.200                   146511556.839 7
  37335277.281           2.890          45.400


 200638201.325 7                  38180175.531
        -3.719                          44.100                   149827185.416 7
  38180176.680          -2.791          47.200


 213736057.180 5                  40672595.953
        -1.609                          35.800                   159608079.271 6
  40672599.680          -1.292          38.600


 200904886.080 6                  38230938.469
         1.182                          39.900



 14  3  9  0  4  0.0000000  0 24G32R24G31R14G03R13R18R17G16R15G23R04
                                G13G27G11G20G19R05E19E12S33S38S35S20
 131101894.487 6 102157371.92843  24947891.844                    24947921.262
     -1046.924        -815.814          38.400          19.900



 118681023.146 7  92307524.962 7  22193869.258    22193868.258    22193877.832
     -3702.502       -2879.720          42.300          43.600



 119826856.543 7  93371670.22545  22802296.734                    22802322.570
     -1463.082       -1140.043          45.200          34.200



 112082681.997 6  87175601.167 6  21026378.164    21026378.172    21026390.063
       662.720         515.462          41.100          39.500



 104993227.514 8  81813154.87146  19979468.914                    19979479.129
       220.272         171.643          50.400          40.900



 125141324.921 5  97332058.015 6  23434949.352    23434947.219    23434966.402
     -1368.639       -1064.716          34.900          38.500



 102603458.347 7  79802898.002 7  19241315.805    19241314.199    19241322.828
      -418.421        -325.454          45.800          44.600



 102810117.080 7  79963610.302 8  19212467.383    19212465.855    19212473.535
      -243.855        -189.664          47.400          49.800



 116475136.292 7  90760040.39645  22164418.906                    22164428.938
     -1144.244        -891.622          46.600          33.600



 117989576.801 6  91769764.062 7  22080122.445    22080121.000    22080132.676
      2284.323        1776.682          40.100          42.600



 110757964.229 8  86304993.69346  21076517.969                    21076526.934
       548.500         427.399          50.000          38.800



 125102406.043 6  97301916.677 6  23362008.320    23362007.457    23362027.598
     -2550.224       -1983.502          39.700          38.700



 119867423.078 7  93403269.76944  22809999.766                    22810011.180
      2434.936        1897.354          44.100          28.100



 106991542.889 8  83370310.08447  20359728.125                    20359739.184
     -1078.372        -840.288          51.400          43.700    79896521.512 9
  20359739.457        -805.278          55.600


 126098201.935 7  98258480.81043  23995673.633                    23995697.793
      3351.402        2611.468          42.800          23.000



 132436826.419 6 103197554.39243  25201919.859                    25201947.824
      -916.916        -714.475          38.100          18.600



 108125943.685 8  84254212.28846  20575608.773                    20575618.145
      1633.862        1273.136          48.500          41.500



 125799262.023 6  97843892.867 6  23533351.414    23533349.547    23533363.680
     -1213.759        -944.016          38.900          39.600



 142294167.282 7                  27077696.781
     -1795.430                          42.600                   106258656.633 7
  27077724.777       -1340.720          42.700   109030620.058 7  27077720.980
     -1375.700          43.100   107644649.451 7  27077722.906       -1358.207
        47.200
 149379882.424 5                  28426047.367
      2871.160                          30.100                   111550039.206 6
  28426082.336        2144.127          37.400   114460021.168 5  28426077.879
      2200.044          35.700

 196198109.146 7                  37335255.938
         3.757                          44.400                   146511475.854 7
  37335256.852           2.759          45.400


 200638307.747 7                  38180195.922
        -3.392                          45.100                   149827264.945 7
  38180196.531          -2.567          47.200


 213736103.227 6                  40672605.281
        -1.267                          37.100                   159608114.730 6
  40672607.273          -0.863          39.100


 200904851.044 6                  38230932.047
         1.233                          39.700



 14  3  9  0  4 30.0000000  0 23G32R24G31R14G03R18R17G16R15G23R04G13
                                G27G11G20G19R05E19E12S33S38S35S20
 131133165.664 6 102181739.80043  24953841.133                    24953870.563
     -1038.072        -808.901          37.600          19.900



 118792280.700 7  92394058.566 7  22214676.070    22214675.070    22214683.148
     -3714.255       -2888.854          42.200          43.100



 119870914.442 7  93406000.43245  22810681.008                    22810706.980
     -1473.721       -1148.342          45.000          33.200



 112062915.790 6  87160227.387 6  21022670.586    21022669.188    21022681.820
       655.267         509.657          40.600          39.200



 104986888.377 8  81808215.32246  19978262.352                    19978272.684
       202.946         158.137          49.900          40.500



 102616430.940 7  79812987.821 7  19243749.391    19243747.434    19243755.914
      -445.504        -346.495          45.700          44.200



 102817847.130 7  79969622.621 8  19213912.227    19213910.816    19213918.262
      -270.562        -210.449          47.900          49.000



 116509443.288 7  90786773.11545  22170947.484                    22170957.484
     -1142.904        -890.577          46.000          34.000



 117920993.981 6  91716421.965 7  22067287.633    22067287.242    22067298.164
      2287.797        1779.416          40.300          42.400



 110741808.694 8  86292404.95146  21073443.820                    21073452.629
       529.215         412.374          50.900          39.700



 125178877.851 6  97361394.055 6  23376290.188    23376289.090    23376308.793
     -2547.884       -1981.683          40.900          39.600



 119794600.509 7  93346524.97444  22796142.000                    22796153.535
      2420.394        1886.022          44.200          29.100



 107024146.474 8  83395715.47947  20365932.641                    20365943.289
     -1094.624        -852.952          50.900          43.700    79920868.349 9
  20365943.676        -817.409          55.500


 125997636.225 7  98180118.59843  23976536.852                    23976559.980
      3352.930        2612.655          43.300          23.900



 132464243.990 6 103218917.83942  25207138.094                    25207165.559
      -911.038        -709.876          37.900          17.800



 108077213.446 8  84216240.75646  20566335.570                    20566344.754
      1615.477        1258.817          48.400          41.800



 125835864.920 6  97872361.685 6  23540199.031    23540198.691    23540212.590
     -1226.017        -953.535          39.900          39.300



 142347953.544 7                  27087932.789
     -1790.441                          43.200                   106298821.035 7
  27087959.656       -1336.997          43.400   109071832.303 7  27087957.875
     -1371.877          43.800   107685337.771 7  27087958.629       -1354.433
        47.200
 149293754.902 6                  28409660.141
      2870.692                          37.800                   111485721.080 6
  28409694.953        2143.771          39.000   114394025.388 6  28409690.684
      2199.692          39.500

 196198001.081 7                  37335235.219
         3.658                          43.800                   146511395.114 7
  37335235.242           2.771          45.500


 200638413.112 7                  38180215.766
        -3.538                          45.700                   149827343.759 7
  38180217.242          -2.608          46.900


 213736147.924 6                  40672614.453
        -1.322                          36.700                   159608147.478 6
  40672615.977          -0.872          38.600


 200904816.329 6                  38230932.672
         1.201                          39.700



 14  3  9  0  5  0.0000000  0 24G32R24G31R14G03R13R18R17G16R15G23R04
                                G13G27G11G20G19R05E19E12S33S38S35S20
 131164170.314 6 102205899.99743  24959740.977                    24959769.871
     -1029.178        -801.987          39.900          21.700



 118903887.627 7  92480863.956 7  22235546.711    22235546.066    22235553.164
     -3725.802       -2897.883          42.800          42.500



 119915292.035 7  93440579.88845  22819125.977                    22819152.563
     -1484.413       -1156.673          43.500          31.400



 112043373.443 6  87145027.717 6  21019004.984    21019003.000    21019015.270
       647.750         503.803          40.700          39.500



 104981068.941 8  81803680.72246  19977155.195                    19977165.574
       185.617         144.635          50.100          40.900



 125223892.005 6  97396526.189 7  23450449.719    23450448.289    23450466.867
     -1390.367       -1081.436          40.200          42.300



 102630216.686 7  79823710.099 7  19246334.406    19246331.746    19246340.270
      -472.581        -367.563          46.000          44.700



 102826378.967 7  79976258.529 8  19215505.984    19215504.930    19215512.656
      -297.291        -231.238          47.600          49.000



 116543709.229 7  90813473.84645  22177468.273                    22177478.031
     -1141.547        -889.520          43.500          33.200



 117852306.291 6  91662998.316 7  22054432.961    22054433.273    22054443.816
      2291.251        1782.094          40.500          42.400



 110726231.558 8  86280266.91046  21070479.297                    21070488.398
       509.914         397.338          49.600          39.300



 125255280.100 6  97420817.307 6  23390557.945    23390558.020    23390577.461
     -2545.611       -1979.902          41.400          40.000



 119722215.523 7  93290121.15344  22782368.438                    22782378.719
      2405.767        1874.611          44.300          28.700



 107057236.769 8  83421500.13847  20372229.461                    20372240.270
     -1110.834        -865.588          49.000          43.700    79945578.644 9
  20372240.715        -829.516          55.400


 125897026.933 7  98101722.40343  23957391.195                    23957414.012
      3354.335        2613.746          44.700          23.000



 132491485.468 6 103240144.07442  25212321.813                    25212350.199
      -905.212        -705.312          37.100          16.900



 108029035.114 7  84178699.27646  20557167.711                    20557176.832
      1597.049        1244.454          47.900          41.200



 125872834.084 6  97901115.453 6  23547114.516    23547113.000    23547127.961
     -1238.166        -963.006          38.800          39.900



 142401589.022 7                  27098139.445
     -1785.431                          43.300                   106338872.829 7
  27098166.859       -1333.257          42.700   109112928.994 7  27098163.809
     -1368.042          43.000   107725912.017 7  27098165.730       -1350.646
        47.000
 149207643.158 5                  28393274.914
      2870.166                          35.100                   111421414.703 6
  28393310.570        2143.376          39.500   114328041.718 6  28393306.211
      2199.285          39.700

 196197896.453 7                  37335214.156
         3.378                          43.800                   146511316.875 7
  37335216.219           2.541          45.300


 200638522.389 7                  38180235.953
        -3.606                          44.800                   149827425.416 7
  38180237.664          -2.635          46.800


 213736194.556 6                  40672621.609
        -1.546                          37.500                   159608182.567 6
  40672625.078          -1.250          40.000


 200904781.215 6                  38230918.609
         1.234                          40.600



 14  3  9  0  5 30.0000000  0 24G32R24G31R14G03R13R18R17G16R15G23R04
                                G13G27G11G20G19R05E19E12S33S38S35S20
 131194906.482 6 102229850.98243  24965588.586                    24965618.086
     -1020.183        -794.982          39.600          20.400



 119015839.074 7  92567937.273 7  22256482.063    22256481.770    22256489.902
     -3737.206       -2906.722          42.700          43.000



 119959989.081 7  93475408.48845  22827631.711                    22827657.695
     -1495.098       -1165.054          43.300          32.000



 112024057.289 6  87130004.015 6  21015381.898    21015380.266    21015392.441
       640.200         497.922          40.900          39.400



 104975767.859 8  81799550.03746  19976146.328                    19976156.816
       168.363         131.187          50.700          40.500



 125265961.405 6  97429094.098 7  23458291.102    23458290.492    23458308.723
     -1401.173       -1089.777          40.900          43.900



 102644813.462 7  79835063.184 7  19249071.156    19249069.789    19249077.926
      -499.638        -388.601          45.400          44.500



 102835711.099 7  79983516.889 8  19217250.070    19217249.016    19217256.984
      -323.916        -251.938          46.700          49.300



 116577933.023 7  90840141.73645  22183981.180                    22183990.898
     -1140.073        -888.370          46.100          34.500



 117783514.945 6  91609494.061 7  22041560.109    22041560.305    22041571.066
      2294.708        1784.759          40.500          42.400



 110711232.376 8  86268579.22646  21067625.070                    21067633.680
       490.662         382.332          49.500          38.600



 125331607.987 6  97480182.750 6  23404812.305    23404811.441    23404832.473
     -2542.998       -1977.901          38.100          40.500



 119650269.661 7  93234059.49344  22768676.852                    22768687.691
      2391.093        1863.193          45.000          27.900



 107090811.230 8  83447662.06347  20378618.031                    20378629.012
     -1126.919        -878.121          50.500          43.400    79970650.494 9
  20378629.578        -841.529          55.600


 125796376.136 7  98023293.86144  23938237.625                    23938259.668
      3355.680        2614.789          44.600          25.000



 132518548.273 6 103261231.07642  25217473.602                    25217500.965
      -899.186        -700.633          37.700          17.400



 107981409.220 7  84141588.26946  20548104.594                    20548114.055
      1578.624        1230.095          47.800          41.700



 125910165.640 6  97930150.978 6  23554099.063    23554097.195    23554111.016
     -1250.130        -972.357          39.800          39.400



 142455071.619 7                  27108317.008
     -1780.282                          43.000                   106378810.457 7
  27108345.887       -1329.407          43.000   109153908.555 7  27108341.480
     -1364.092          42.800   107766370.619 7  27108343.711       -1346.754
        47.000
 149121548.089 6                  28376892.977
      2869.577                          37.500                   111357120.736 6
  28376928.820        2142.941          39.300   114262070.751 6  28376923.988
      2198.839          39.500

 196197793.160 7                  37335194.250
         3.533                          44.600                   146511240.080 7
  37335195.727           2.549          45.700


 200638628.816 7                  38180256.891
        -3.778                          45.200                   149827505.048 7
  38180258.883          -2.900          47.200


 213736239.940 6                  40672630.922
        -1.583                          37.500                   159608216.775 6
  40672633.453          -1.104          39.000


 200904745.085 6                  38230911.281
         1.261                          40.500



 14  3  9  0  6  0.0000000  0 24G32R24G31R14G03R13R18R17G16R15G23R04
                                G13G27G11G20G19R05E19E12S33S38S35S20
 131225373.625 6 102253592.34642  24971386.039                    24971414.809
     -1011.262        -788.010          38.300          17.400



 119128131.084 6  92655275.428 7  22277481.102    22277480.336    22277489.836
     -3748.542       -2915.511          41.100          43.600



 120005006.432 7  93510486.89045  22836198.281                    22836223.887
     -1505.684       -1173.234          43.200          32.100



 112004970.649 6  87115158.781 6  21011800.664    21011799.383    21011811.746
       632.467         491.914          40.900          40.300



 104970984.338 8  81795822.64346  19975236.031                    19975246.004
       151.101         117.741          50.600          41.300



 125308139.358 5  97461953.292 6  23466194.469    23466193.742    23466212.164
     -1412.051       -1098.210          35.800          41.700



 102660220.381 7  79847046.376 7  19251960.945    19251958.988    19251967.336
      -526.637        -409.597          45.500          44.500



 102845843.086 7  79991397.358 8  19219143.102    19219142.398    19219150.145
      -350.616        -272.710          47.800          49.500



 116612113.654 7  90866775.99445  22190485.273                    22190495.188
     -1138.675        -887.278          47.000          33.700



 117714622.173 6  91555910.903 7  22028668.531    22028667.789    22028678.516
      2298.032        1787.341          40.200          43.000



 110696811.730 8  86257342.33546  21064881.016                    21064889.863
       471.342         367.278          48.200          38.700



 125407858.482 6  97539487.900 6  23419050.641    23419050.129    23419071.848
     -2540.385       -1975.838          37.500          39.800



 119578765.585 7  93178342.09544  22755070.281                    22755081.086
      2376.288        1851.658          44.500          29.000



 107124868.322 8  83474200.05947  20385099.055                    20385109.652
     -1143.021        -890.663          50.300          42.900    79996082.742 9
  20385110.332        -853.548          55.500


 125695686.561 7  97944835.09644  23919076.180                    23919098.613
      3356.924        2615.757          43.100          25.900



 132545431.412 6 103282178.13343  25222588.609                    25222617.086
      -893.222        -696.000          37.100          18.600



 107934337.351 7  84104908.97546  20539146.930                    20539156.156
      1560.094        1215.660          46.600          41.300



 125947856.310 6  97959465.906 6  23561148.656    23561147.965    23561162.258
     -1262.105        -981.626          39.800          39.100



 142508400.242 7                  27118465.875
     -1775.134                          42.700                   106418633.107 7
  27118494.324       -1325.563          42.500   109194770.141 7  27118490.617
     -1360.141          42.600   107806712.736 7  27118492.527       -1342.856
        46.800
 149035471.608 5                  28360514.164
      2868.871                          35.300                   111292840.666 6
  28360550.977        2142.418          37.700   114196114.074 6  28360545.586
      2198.297          38.000

 196197691.678 7                  37335174.719
         3.190                          44.200                   146511164.063 7
  37335177.273           2.346          45.300


 200638737.217 7                  38180277.688
        -3.771                          45.200                   149827586.168 7
  38180278.719          -2.788          47.000


 213736285.024 6                  40672640.438
        -1.303                          36.800                   159608250.378 6
  40672641.539          -0.954          38.700


 200904707.638 6                  38230905.406
         1.338                          39.900



 14  3  9  0  6 30.0000000  0 25G32R24G31R14G03R13R18R17G16R15G23R04
                                G13G27G11G20G19R05E19E12S33S38S35S20
                                S36
 131255571.366 6 102277123.73643  24977131.813                    24977160.961
     -1002.194        -780.969          38.700          19.300



 119240760.471 7  92742876.006 7  22298544.320    22298543.793    22298551.633
     -3759.669       -2924.189          42.600          44.100



 120050344.253 7  93545814.78645  22844826.227                    22844852.031
     -1516.452       -1181.652          42.900          33.300



 111986117.105 6  87100494.857 6  21008263.109    21008262.531    21008274.879
       624.704         485.860          40.900          39.900



 104966718.584 8  81792498.71046  19974424.484                    19974434.262
       133.905         104.337          50.200          41.200



 125350671.886 4                  23474161.570    23474159.789
     -1423.149                          29.900



 102676437.678 7  79859659.862 7  19255002.125    19255000.168    19255008.707
      -553.579        -430.558          46.000          44.600



 102856775.148 7  79999900.120 8  19221186.484    19221185.313    19221192.672
      -377.234        -293.417          47.900          49.200



 116646251.268 7  90893376.72945  22196981.453                    22196991.297
     -1137.175        -886.110          46.200          34.200



 117645631.193 6  91502251.320 7  22015756.336    22015756.531    22015767.371
      2301.326        1789.937          41.500          42.600



 110682969.944 8  86246556.51146  21062247.195                    21062256.293
       452.099         352.285          48.200          39.200



 125484028.567 6  97598730.547 6  23433277.469    23433276.137    23433297.273
     -2537.606       -1973.678          38.400          40.400



 119507706.192 7  93122971.19744  22741548.023                    22741559.023
      2361.472        1840.106          45.800          29.100



 107159406.962 8  83501113.29747  20391671.859                    20391682.578
     -1158.978        -903.099          50.200          43.400    80021874.597 9
  20391683.203        -865.469          55.400


 125594961.012 7  97866348.30144  23899907.891                    23899930.176
      3358.141        2616.714          42.600          24.300



 132572133.537 6 103302984.08142  25227671.789                    25227699.648
      -887.111        -691.248          37.900          17.400



 107887821.491 7  84068662.94046  20530295.172                    20530304.273
      1541.603        1201.249          47.000          41.700



 125985903.551 6  97989058.139 6  23568266.813    23568266.121    23568278.852
     -1273.874        -990.809          39.600          39.700



 142561574.148 7                  27128585.008
     -1769.931                          42.700                   106458340.188 7
  27128612.840       -1321.674          42.100   109235513.149 7  27128610.027
     -1356.162          42.400   107846937.775 7  27128611.695       -1338.918
        46.400
 148949416.315 6                  28344140.422
      2868.193                          38.600                   111228576.404 6
  28344177.590        2141.904          40.200   114130173.616 6  28344172.434
      2197.776          39.800

 196197593.342 7                  37335154.453
         3.384                          43.600                   146511090.664 7
  37335157.453           2.541          45.800


 200638845.981 7                  38180298.234
        -3.675                          45.000                   149827666.750 7
  38180299.734          -2.833          47.500


 213736330.701 6                  40672648.719
        -1.464                          37.500                   159608284.713 6
  40672651.250          -1.074          39.000


 200904667.734 6                  38230892.672
         1.488                          39.900



 211080894.85116                  40167354.422
                                        38.200



 14  3  9  0  7  0.0000000  0 25G32R24G31R14G03R13R18R17G16R15G23R04
                                G13G27G11G20G19R05E19E12S33S38S35S20
                                S36
 131285497.737 6 102300443.67943  24982827.594                    24982855.500
      -993.133        -773.886          38.200          19.000



 119353722.344 7  92830735.244 6  22319668.617    22319667.383    22319674.625
     -3770.740       -2932.772          42.000          41.700



 120096002.417 7  93581392.29045  22853514.344                    22853541.383
     -1527.118       -1189.953          44.300          32.600



 111967499.089 6  87086014.110 6  21004771.117    21004769.836    21004782.012
       616.755         479.711          41.000          39.900



 104962969.292 8  81789577.20346  19973710.969                    19973720.930
       116.644          90.893          50.500          41.200



 125393557.698 5  97528374.081 6  23482188.406    23482185.566    23482204.176
     -1434.178       -1115.499          35.000          39.700



 102693463.431 7  79872902.160 7  19258194.969    19258193.129    19258201.742
      -580.568        -451.567          45.900          44.800



 102868505.701 7  80009023.909 8  19223378.555    19223377.266    19223384.875
      -403.899        -314.155          47.600          49.100



 116680344.706 7  90919943.03245  22203469.523                    22203478.664
     -1135.737        -884.986          44.200          34.200



 117576543.246 6  91448516.348 7  22002829.492    22002828.047    22002838.805
      2304.442        1792.370          40.900          42.200



 110669706.566 8  86236221.39146  21059723.500                    21059732.047
       432.791         337.240          49.400          39.700



 125560114.217 6  97657907.488 6  23447487.109    23447485.070    23447505.977
     -2534.785       -1971.472          39.200          39.300



 119437093.093 7  93067948.06344  22728110.750                    22728121.742
      2346.536        1828.460          45.500          29.900



 107194424.484 8  83528399.67747  20398334.891                    20398345.668
     -1174.970        -915.560          49.500          43.400    80048024.049 9
  20398346.293        -877.411          55.400


 125494201.442 7  97787834.99043  23880733.789                    23880755.453
      3359.142        2617.489          42.000          23.500



