     2.10           OBSERVATION DATA    M (MIXED)           RINEX VERSION / TYPE
                                        20130318 203115 UTC PGM / RUN BY / DATE 
GPSTSubBD2T 20739                                           COMMENT             
P206                                                        MARKER NAME         
                                                            MARKER NUMBER       
                                                            OBSERVER / AGENCY   
                                                            REC # / TYPE / VERS 
                                                            ANT # / TYPE        
 -2605664.2063  4741930.2998  3365930.5378                  APPROX POSITION XYZ 
        0.0000        0.0000        0.0000                  ANTENNA: DELTA H/E/N
     1     1                                                WAVELENGTH FACT L1/2
     6    C1    L1    D1    P2    L2    D2                  # / TYPES OF OBSERV 
    15.000                                                  INTERVAL            
  2013     3    17     1    10   12.0000000     GPS         TIME OF FIRST OBS   
                                                            END OF HEADER       
 13  3 17  1 11 30.0000000  0 22G02G05G08G29G26G15G09R02R12R11R01R24
                                R17C01C02C03C04C10C06C07C08C09
  21829964.49307 114717227.81107     -2641.588    21829964.57407  89390039.31607
     -2058.385  
  21428146.99807 112605663.60007     -1167.786    21428146.66707  87744671.72407
      -909.964  
  24064760.56906 126461164.33506      -603.230    24064763.06706  98541180.29206
      -470.051  
  21883123.26007 114996582.90707      -610.055    21883123.18207  89607727.32607
      -475.370  
  19806596.90108 104084369.41708      -661.336    19806596.77107  81104702.69807
      -515.327  
  20718974.07508 108878947.31808      1606.246    20718973.48607  84840739.12107
      1251.620  
  22397825.35207 117701379.40907      2886.248    22397828.09407  91715376.02407
      2249.026  
  20616221.78407 110012107.97907       471.562    20616225.59607  85564993.48107
       366.770  
  22927735.39106 122475880.29106      3531.901    22927744.24806  95259047.06006
      2747.039  
  22090532.07906 118045115.85906       933.674    22090537.74506  91812893.05806
       726.193  
  21342565.13507 114088236.23807     -1906.752    21342570.45007  88735307.53607
     -1483.033  
  20851377.72807 111501671.44307     -3467.246    20851379.91107  86723528.12707
     -2696.750  
  20183548.68707 108006244.92307       593.403    20183549.75408  84004858.40408
       461.534  
  37380285.51708  -1169752.53408        29.874    37380280.35707  -1153825.58707
        25.044  
  38347672.24607  -1180821.55607        40.061    38347668.05407  -1159625.12907
        26.382  
  37132836.72408  -1141154.87208         8.605    37132833.60707  -1129098.68007
         6.085  
  38469448.87507  -1142515.73707         8.302    38469448.26707  -1131514.82107
         6.015  
  40135837.76906  -2914540.83806      1595.544    40135841.10506  -2484610.77406
      1229.407  
  36120349.22608  -1360568.16008       213.741    36120344.80507  -1299046.92807
       166.017  
  38231272.46107  -3150486.69807      1631.289    38231268.34507  -2678305.34807
      1260.687  
  40341729.90307   1065799.76307     -1758.265    40341728.94906    579241.06606
     -1359.036  
  37130541.04608  -1403753.50508       259.067    37130540.32707  -1330869.74307
       201.226  
 13  3 17  1 11 45.0000000  0 22G02G05G08G29G26G15G09R02R12R11R01R24
                                R17C01C02C03C04C10C06C07C08C09
  21837513.30307 114756897.25507     -2647.892    21837513.42907  89420950.53707
     -2063.295  
  21431483.24907 112623196.17607     -1170.172    21431482.99307  87758333.45207
      -911.823  
  24066493.99406 126470273.29506      -611.563    24066496.68806  98548278.15706
      -476.545  
  21884877.44407 115005801.70507      -619.249    21884877.66207  89614910.78407
      -482.534  
  19808499.27008 104094366.05808      -671.727    19808499.08207  81112492.28007
      -523.425  
  20714400.24308 108854911.32808      1598.291    20714399.73307  84822009.77407
      1245.421  
  22389594.44207 117658125.79607      2880.831    22389597.11906  91681671.96006
      2244.807  
  20614900.95407 110005059.53707       468.081    20614904.64107  85559511.36807
       364.063  
  22917821.06106 122422921.03106      3529.018    22917829.66706  95217856.61306
      2744.798  
  22087927.84506 118031199.63706       921.861    22087933.46206  91802069.35106
       717.004  
  21347917.01707 114116845.11007     -1907.736    21347922.56707  88757558.84607
     -1483.796  
  20861114.95107 111553740.08907     -3475.369    20861117.17207  86764025.92707
     -2703.067  
  20181904.75407 107997447.60607       579.563    20181905.74508  83998016.03308
       450.770  
  37380192.28208  -1170239.47608        31.891    37380186.43807  -1154202.09807
        23.666  
  38347555.39907  -1181428.87607        39.243    38347551.53107  -1160094.70407
        27.042  
  37132806.29908  -1141313.71108         8.620    37132803.15607  -1129221.45707
         6.059  
  38469419.02607  -1142672.03107         9.516    38469417.86507  -1131635.64607
         7.816  
  40131239.41906  -2938481.06106      1595.984    40131243.26506  -2503122.76806
      1234.089  
  36119724.40608  -1363820.23808       216.037    36119720.13607  -1301561.61607
       165.437  
  38226569.17307  -3174976.35807      1628.085    38226565.23407  -2697242.25507
      1259.130  
  40346785.88707   1092128.71207     -1756.341    40346785.73506    599600.28206
     -1356.530  
  37129785.98008  -1407687.78908       262.772    37129784.97607  -1333911.95607
       200.752  
 13  3 17  1 12  0.0000000  0 22G02G05G08G29G26G15G09R02R12R11R01R24
                                R17C01C02C03C04C10C06C07C08C09
  21845080.19807 114796661.45407     -2654.191    21845080.37007  89451935.57007
     -2068.204  
  21434826.53907 112640765.15107     -1172.701    21434826.39207  87772023.54207
      -913.794  
  24068252.13506 126479513.13306      -620.344    24068255.06106  98555477.98406
      -483.389  
  21886657.82707 115015158.38007      -628.571    21886658.32107  89622201.65707
      -489.797  
  19810431.34208 104104519.19208      -682.236    19810431.13607  81120403.79307
      -531.613  
  20709848.94607 108830994.67607      1590.269    20709848.72307  84803373.41907
      1239.171  
  22381378.41507 117614950.32307      2875.530    22381381.02006  91648028.73806
      2240.673  
  20613589.78407 109998062.49907       464.563    20613593.25707  85554069.20307
       361.325  
  22907914.57506 122370002.96606      3526.192    22907922.83306  95176698.17906
      2742.598  
  22085357.08806 118017462.60606       909.708    22085362.52006  91791385.01206
       707.552  
  21353271.57007 114145467.51107     -1908.840    21353276.84906  88779820.68706
     -1484.655  
  20870874.65707 111605929.32407     -3483.397    20870876.82307  86804617.50307
     -2709.311  
  20180299.59108 107988856.88608       565.660    20180300.44808  83991334.34508
       439.957  
  37380096.45808  -1170737.07408        32.450    37380090.84107  -1154586.84307
        28.680  
  38347437.15307  -1182046.55407        41.996    38347433.61407  -1160572.30207
        30.164  
  37132773.30108  -1141483.35908        12.549    37132770.12907  -1129352.62707
         9.250  
  38469386.37607  -1142838.71507        12.048    38469385.27407  -1131764.49107
        10.653  
  40126640.85206  -2962430.13106      1596.496    40126644.24406  -2521641.63606
      1239.131  
  36119096.25808  -1367093.17908       218.558    36119091.94107  -1304092.42707
       168.367  
  38221867.46307  -3199458.89407      1631.386    38221863.63307  -2716173.67107
      1262.356  
  40351836.95407   1118433.20407     -1751.370    40351837.98206    619940.50506
     -1358.222  
  37129025.96108  -1411646.35708       263.092    37129024.61107  -1336972.94107
       205.788  
 13  3 17  1 12 15.0000000  0 22G02G05G08G29G26G15G09R02R12R11R01R24
                                R17C01C02C03C04C10C06C07C08C09
  21852664.09007 114836515.24307     -2659.989    21852664.35507  89482990.42407
     -2072.722  
  21438175.78507 112658365.46007     -1174.544    21438175.76507  87785738.03607
      -915.231  
  24070034.27206 126488878.50906      -628.711    24070037.16306  98562775.68506
      -489.906  
  21888463.61607 115024647.76507      -637.046    21888464.19607  89629595.97607
      -496.401  
  19812392.19108 104114823.57808      -692.132    19812391.99807  81128433.17107
      -539.325  
  20705319.38207 108807192.28607      1582.879    20705319.38607  84784826.10407
      1233.412  
  22373176.37307 117571848.29507      2870.961    22373178.84906  91614442.78106
      2237.115  
  20612287.30307 109991111.76807       461.753    20612290.72607  85548663.07107
       359.140  
  22898014.91606 122317121.36506      3524.204    22898022.97206  95135568.14706
      2741.053  
  22082818.91606 118003899.81506       898.312    22082824.22006  91780836.21906
       698.691  
  21358627.54207 114174098.23307     -1909.188    21358632.70807  88802088.98707
     -1484.927  
  20880655.69107 111658233.76007     -3490.913    20880658.13407  86845298.67407
     -2715.158  
  20178731.94108 107980467.92708       552.460    20178732.95108  83984809.58508
       429.690  
  37380002.61908  -1171226.63808        28.108    37379996.85907  -1154965.38007
        22.388  
  38347319.99207  -1182655.87807        40.564    38347316.69007  -1161043.42707
        32.400  
  37132742.24808  -1141645.18308         7.089    37132739.29707  -1129477.71807
         5.030  
  38469356.31407  -1142997.13307         8.626    38469355.50407  -1131887.00307
         7.062  
  40122043.65506  -2986369.45206      1593.655    40122046.14106  -2540152.94706
      1233.067  
  36118467.05308  -1370368.33208       215.059    36118462.83207  -1306624.95007
       165.695  
  38217170.56007  -3223915.47407      1626.269    38217167.09907  -2735084.98507
      1256.943  
  40356887.58007   1144731.78107     -1755.177    40356888.25506    640276.15306
     -1356.819  
  37128264.52808  -1415610.55508       261.177    37128263.07707  -1340038.27507
       203.949  
 13  3 17  1 12 30.0000000  0 22G02G05G08G29G26G15G09R02R12R11R01R24
                                R17C01C02C03C04C10C06C07C08C09
  21860265.01807 114876458.59007     -2665.753    21860265.48107  89514115.06807
     -2077.212  
  21441530.87407 112675997.15007     -1176.648    21441530.96407  87799476.98907
      -916.869  
  24071840.45906 126498369.69806      -637.110    24071843.06606  98570171.38606
      -496.452  
  21890294.62507 115034269.92607      -645.987    21890295.31707  89637093.73607
      -503.368  
  19814381.81808 104125279.14608      -702.009    19814381.67507  81136580.36007
      -547.020  
  20700811.65607 108783504.33907      1575.436    20700811.80607  84766367.98807
      1227.615  
  22364988.40107 117528820.29407      2866.055    22364990.82506  91580914.51806
      2233.294  
  20610993.40708 109984207.27708       458.741    20610996.88507  85543292.90307
       356.798  
  22888122.16706 122264277.17206      3522.133    22888129.92306  95094467.16306
      2739.443  
  22080313.41806 117990511.99606       886.506    22080318.80506  91770423.49806
       689.507  
  21363985.21107 114202737.33107     -1909.524    21363990.42207  88824363.82407
     -1485.186  
  20890458.19307 111710652.82607     -3498.314    20890460.94707  86886069.00607
     -2720.914  
  20177201.93508 107972280.76208       539.049    20177203.11608  83978441.76608
       419.259  
  37379905.78208  -1171729.89108        32.216    37379900.06507  -1155354.49307
        25.991  
  38347200.12007  -1183278.57107        39.021    38347196.74907  -1161524.91407
        31.160  
  37132708.24008  -1141820.84408        11.698    37132705.51707  -1129613.50907
         7.452  
  38469323.82807  -1143169.05807         8.636    38469322.15607  -1132019.87807
        10.723  
  40117444.81607  -3010320.41607      1595.610    40117447.04706  -2558673.24506
      1233.829  
  36117833.42808  -1373667.35508       219.610    36117828.85307  -1309175.94607
       169.269  
  38212475.44107  -3248367.82207      1627.933    38212471.03407  -2753993.04607
      1261.221  
  40361932.89007   1171002.56007     -1752.454    40361933.58806    660590.34506
     -1351.563  
  37127498.14708  -1419602.00608       265.210    37127496.75007  -1343124.67907
       204.019  
 13  3 17  1 12 45.0000000  0 22G02G05G08G29G26G15G09R02R12R11R01R24
                                R17C01C02C03C04C10C06C07C08C09
  21867883.50807 114916494.02307     -2672.331    21867884.09107  89545311.43507
     -2082.339  
  21444892.47807 112693662.72307     -1179.046    21444892.56107  87813242.33507
      -918.739  
  24073671.15006 126507989.38506      -646.150    24073673.32906  98577667.18906
      -503.498  
  21892151.29207 115044027.21707      -655.298    21892152.05607  89644696.78807
      -510.623  
  19816400.70208 104135888.35108      -712.601    19816400.57307  81144847.25307
      -555.274  
  20696326.29208 108759933.68808      1567.230    20696326.45707  84748001.24107
      1221.219  
  22356815.09807 117485869.39307      2860.751    22356817.47806  91547446.31106
      2229.158  
  20609708.64807 109977351.45007       455.172    20609712.03107  85537960.58507
       354.023  
  22878237.07906 122211473.52106      3518.618    22878245.12306  95053397.74506
      2736.709  
  22077841.10306 117977301.65106       874.590    22077846.58406  91760148.79006
       680.237  
  21369344.97107 114231387.12707     -1910.539    21369350.01606  88846646.96506
     -1485.976  
  20900282.59907 111763188.61407     -3506.513    20900285.37107  86926930.10907
     -2727.292  
  20175710.18608 107964298.24208       525.138    20175711.37108  83972233.11208
       408.439  
  37379811.34708  -1172219.17108        34.342    37379806.28307  -1155732.80107
        27.452  
  38347083.36307  -1183886.92207        42.607    38347080.11207  -1161995.30907
        31.317  
  37132677.61308  -1141982.71108        11.629    37132674.61707  -1129738.63207
         8.564  
  38469292.78107  -1143326.74007        11.716    38469291.43207  -1132141.79807
         6.963  
  40112848.15007  -3034255.44307      1593.568    40112850.66506  -2577181.21306
      1233.713  
  36117200.58708  -1376962.52108       221.537    36117196.39907  -1311723.94907
       173.001  
  38207785.96407  -3272788.21307      1626.915    38207782.11807  -2772876.39207
      1258.463  
  40366977.27707   1197273.24107     -1750.329    40366978.36606    680904.43706
     -1353.973  
  37126730.90708  -1423593.06908       266.526    37126730.48707  -1346210.80507
       207.291  
 13  3 17  1 13  0.0000000  0 23G02G05G08G29G26G15G09R02R12R11R01R24
                                R17R03C01C02C03C04C10C06C07C08C09
  21875519.46707 114956620.83407     -2678.271    21875519.95807  89576579.03007
     -2086.968  
  21448260.53307 112711361.87207     -1180.959    21448260.68007  87827033.85507
      -920.229  
  24075525.99406 126517737.07606      -654.146    24075528.22806  98585262.72206
      -509.731  
  21894033.80507 115053919.07007      -663.943    21894034.23307  89652404.72107
      -517.359  
  19818448.64608 104146650.52608      -722.657    19818448.57107  81153233.34207
      -563.110  
  20691863.23807 108736479.88107      1559.692    20691863.23607  84729725.53907
      1215.344  
  22348656.48007 117442995.60007      2855.770    22348658.80507  91514038.19507
      2225.279  
  20608432.89007 109970543.73207       452.328    20608436.05107  85532665.69407
       351.811  
  22868359.59206 122158710.48906      3516.353    22868368.43706  95012359.90906
      2734.947  
  22075402.16306 117964268.87606       862.932    22075407.33106  91750012.20706
       671.170  
  21374706.28507 114260047.25407     -1911.015    21374711.31706  88868938.11906
     -1486.348  
  20910128.81507 111815840.31407     -3513.983    20910131.34007  86967881.38407
     -2733.101  
  20174256.79008 107956520.01508       511.710    20174257.73908  83966183.36908
       397.997  
  23273449.48005 124584602.30205      2102.189    23273453.88706  96899146.48706
      1635.036  
  37379716.58108  -1172713.83108        36.985    37379711.20807  -1156115.28107
        26.373  
  38346965.44507  -1184500.27207        41.624    38346962.29007  -1162469.56007
        34.958  
  37132645.66208  -1142150.03908        14.185    37132642.27907  -1129868.00907
         9.079  
  38469261.58507  -1143489.53307        12.689    38469260.81907  -1132267.63507
         8.264  
  40108251.12407  -3058193.84307      1594.005    40108253.19906  -2595691.80406
      1239.641  
  36116564.54208  -1380273.15108       221.579    36116560.49707  -1314283.90007
       171.851  
  38203097.84607  -3297195.82707      1627.561    38203094.96907  -2791749.86007
      1259.246  
  40372019.13507   1223524.49907     -1745.689    40372020.03206    701203.53606
     -1354.785  
  37125961.56108  -1427603.11408       271.567    37125959.74807  -1349311.58007
       209.989  
 13  3 17  1 13 15.0000000  0 23G02G05G08G29G26G15G09R02R12R11R01R24
                                R17R03C01C02C03C04C10C06C07C08C09
  21883172.93907 114996839.10607     -2684.708    21883173.16707  89607917.88707
     -2091.984  
  21451635.06007 112729094.82907     -1183.622    21451635.27607  87840851.71007
      -922.305  
  24077405.15606 126527613.11106      -662.918    24077407.76806  98592958.26506
      -516.566  
  21895941.98707 115063945.69607      -673.230    21895942.21107  89660217.65507
      -524.597  
  19820525.70408 104157565.75408      -733.183    19820525.73208  81161738.70608
      -571.312  
  20687422.44807 108713143.05807      1551.542    20687422.32007  84711541.00307
      1208.994  
  22340512.64707 117400199.61507      2850.384    22340515.05207  91480690.69907
      2221.080  
  20607166.31208 109963784.33308       448.695    20607169.30207  85527408.37607
       348.984  
  22858490.06006 122105988.97706      3512.964    22858499.62006  94971354.35906
      2732.310  
  22072996.64006 117951414.19806       850.738    22073001.18906  91740014.13206
       661.685  
  21380069.75207 114288718.08807     -1912.043    21380074.71507  88891237.61707
     -1487.148  
  20919996.62507 111868607.55707     -3521.933    20919998.91007  87008922.52007
     -2739.286  
  20172841.51308 107948946.33508       497.776    20172842.45008  83960292.71808
       387.159  
  23267561.65005 124553088.25605      2099.144    23267567.09406  96874635.55906
      1632.664  
  37379621.34707  -1173210.95907        32.172    37379616.06807  -1156499.65407
        24.673  
  38346847.03707  -1185115.74507        39.518    38346843.82407  -1162945.45807
        30.634  
  37132612.63908  -1142320.04408         9.919    37132609.33907  -1129999.41407
         8.719  
  38469229.99407  -1143654.59307        11.462    38469228.95207  -1132395.23507
         8.527  
  40103653.92307  -3082132.49107      1595.647    40103656.30906  -2614202.57006
      1232.011  
  36115926.68108  -1383596.30508       220.287    36115922.44607  -1316853.54507
       172.870  
  38198413.71007  -3321587.76007      1624.914    38198410.08607  -2810611.20507
      1258.321  
  40377056.87006   1249759.02806     -1748.831    40377057.75806    721489.66306
     -1350.721  
  37125188.18708  -1431629.20508       267.814    37125186.37207  -1352424.78007
       205.967  
 13  3 17  1 13 30.0000000  0 23G02G05G08G29G26G15G09R02R12R11R01R24
                                R17R03C01C02C03C04C10C06C07C08C09
  21890844.11407 115037150.66407     -2690.101    21890844.13807  89639329.43207
     -2096.186  
  21455016.44307 112746863.50807     -1185.438    21455016.54007  87854697.42507
      -923.719  
  24079309.24506 126537619.28806      -670.974    24079312.07506  98600755.25706
      -522.839  
  21897875.99207 115074108.73507      -681.760    21897876.27807  89668136.88207
      -531.243  
  19822632.23408 104168635.73908      -742.698    19822632.33708  81170364.66508
      -578.727  
  20683004.16107 108689925.32907      1544.125    20683004.10207  84693449.27207
      1203.215  
  22332383.96507 117357483.76707      2845.453    22332386.49207  91447405.67407
      2217.239  
  20605909.03507 109957075.06807       446.079    20605912.07007  85522190.05307
       346.950  
  22848628.61606 122053311.44806      3510.526    22848638.82206  94930383.05606
      2730.417  
  22070624.90206 117938739.84206       839.322    22070629.10806  91730156.31906
       652.807  
  21385435.44507 114317401.17707     -1912.214    21385440.58107  88913546.65007
     -1487.280  
  20929886.27707 111921491.56607     -3528.957    20929888.29507  87050054.48707
     -2744.748  
  20171464.79207 107941579.40107       484.521    20171466.04308  83954562.84908
       376.847  
  23261677.35605 124521611.32305      2098.133    23261685.92706  96850153.52206
      1631.882  
  37379527.03508  -1173702.71808        35.200    37379521.72007  -1156879.89207
        29.265  
  38346729.96207  -1185725.54907        44.001    38346727.16907  -1163416.97007
        28.846  
  37132580.81008  -1142484.81408        12.109    37132577.86907  -1130126.78707
        11.273  
  38469199.49907  -1143814.06307        11.422    38469198.17007  -1132518.51507
        10.388  
  40099058.16007  -3106063.62607      1596.277    40099060.69606  -2632707.54406
      1234.280  
  36115287.67208  -1386924.17908       222.506    36115283.26307  -1319426.83507
       172.596  
  38193734.06907  -3345956.07807      1624.857    38193731.32107  -2829454.28807
      1254.176  
  40382092.52006   1275984.55606     -1749.919    40382094.57506    741768.83706
     -1352.777  
  37124412.61908  -1435663.52908       270.376    37124411.61107  -1355544.34707
       210.867  
 13  3 17  1 13 45.0000000  0 23G02G05G08G29G26G15G09R02R12R11R01R24
                                R17R03C01C02C03C04C10C06C07C08C09
  21898531.97007 115077550.33207     -2696.385    21898531.97607  89670809.62207
     -2101.083  
  21458403.59607 112764662.71807     -1187.865    21458403.49707  87868566.91107
      -925.610  
  24081237.07906 126547750.63806      -680.091    24081240.31506  98608649.75606
      -529.946  
  21899834.88907 115084402.99307      -690.841    21899835.29907  89676158.33407
      -538.321  
  19824767.26208 104179855.22408      -753.160    19824767.40307  81179107.10207
      -586.879  
  20678607.62108 108666821.64408      1536.108    20678607.55807  84675446.39807
      1196.967  
  22324269.65607 117314843.31707      2840.005    22324272.13306  91414179.37706
      2212.993  
  20604660.08007 109950410.69307       442.578    20604663.17407  85517006.63107
       344.225  
  22838774.57806 122000673.38906      3507.526    22838784.66706  94889442.40006
      2728.080  
  22068285.92306 117926240.93806       827.197    22068290.27606  91720434.95806
       643.375  
  21390802.45607 114346091.32607     -1913.224    21390807.84007  88935861.16407
     -1488.065  
  20939796.86107 111974486.95807     -3536.957    20939798.66207  87091273.06907
     -2750.970  
  20170125.64607 107934414.11207       470.699    20170127.07108  83948989.82208
       366.097  
  23255803.26105 124490166.61105      2094.979    23255810.64406  96825696.57506
      1629.436  
  37379430.58308  -1174204.68308        32.854    37379424.78707  -1157268.01307
        23.737  
  38346611.21907  -1186345.18407        40.287    38346607.75807  -1163896.08307
        31.723  
  37132547.87908  -1142659.92708        11.457    37132544.22507  -1130262.16207
         8.603  
  38469166.82907  -1143983.45207         9.077    38469165.45207  -1132649.46907
         9.080  
  40094460.83607  -3130002.70807      1592.377    40094462.35706  -2651218.63306
      1232.070  
  36114644.79408  -1390272.28808       223.106    36114639.96507  -1322015.76807
       173.482  
  38189055.68807  -3370316.35407      1625.206    38189053.22707  -2848291.13507
      1255.824  
  40387125.09406   1302185.54406     -1749.540    40387127.22706    762029.05406
     -1349.097  
  37123633.48408  -1439721.62808       270.627    37123631.94807  -1358682.29807
       211.689  
 13  3 17  1 14  0.0000000  0 23G02G05G08G29G26G15G09R02R12R11R01R24
                                R17R03C01C02C03C04C10C06C07C08C09
  21906237.45607 115118042.29507     -2702.462    21906237.41907  89702361.76707
     -2105.817  
  21461797.38407 112782496.97707     -1189.906    21461797.17107  87882463.69907
      -927.202  
  24083189.81206 126558011.47806      -688.458    24083192.99206  98616645.17206
      -536.466  
  21901819.54307 115094832.64507      -699.739    21901820.25607  89684285.30207
      -545.253  
  19826931.52108 104191228.43508      -763.166    19826931.67108  81187969.34108
      -594.675  
  20674233.67407 108643836.52607      1528.599    20674233.64007  84657535.92607
      1191.117  
  22316170.73507 117272283.15007      2834.972    22316173.07507  91381015.64707
      2209.071  
  20603420.16007 109943795.26607       439.616    20603423.36207  85511861.30107
       341.924  
  22828928.71206 121948079.83406      3504.798    22828938.45506  94848536.40306
      2725.960  
  22065980.36006 117913922.24406       815.289    22065985.55406  91710853.77206
       634.114  
  21396171.87007 114374793.03907     -1913.641    21396177.18907  88958184.70107
     -1488.389  
  20949728.99607 112027597.63907     -3544.386    20949730.67707  87132581.32907
     -2756.747  
  20168825.06608 107927454.84608       457.285    20168826.53408  83943577.03908
       355.664  
  23249936.50405 124458758.26005      2092.461    23249943.37006  96801267.89206
      1627.474  
  37379337.25907  -1174691.25207        29.483    37379331.49107  -1157644.22007
        24.762  
  38346495.55007  -1186949.14707        36.282    38346491.29307  -1164363.08007
        30.420  
  37132516.73908  -1142819.83008         9.443    37132513.60107  -1130385.77707
         7.754  
  38469137.41907  -1144137.30907        11.998    38469136.38807  -1132768.39007
         4.186  
  40089867.35907  -3153924.00807      1597.633    40089868.79506  -2669715.97706
      1234.573  
  36114002.44908  -1393614.95508       222.221    36113998.12507  -1324600.49807
       170.246  
  38184383.92407  -3394642.90707      1617.563    38184382.31007  -2867101.93007
      1254.655  
  40392155.71606   1328387.54806     -1746.543    40392159.05606    782290.00006
     -1352.146  
  37122854.51808  -1443777.92608       270.399    37122852.91207  -1361818.85307
       208.657  
 13  3 17  1 14 15.0000000  0 23G02G05G08G29G26G15G09R02R12R11R01R24
                                R17R03C01C02C03C04C10C06C07C08C09
  21913959.88407 115158623.25507     -2708.588    21913959.78907  89733983.24607
     -2110.591  
  21465197.09107 112800363.13007     -1192.343    21465196.91907  87896385.35107
      -929.099  
  24085166.47406 126568398.54706      -696.998    24085169.52906  98624738.95106
      -543.119  
  21903829.35707 115105394.42907      -708.700    21903830.30107  89692515.24307
      -552.234  
  19829124.42108 104202752.03908      -773.499    19829124.49607  81196948.76707
      -602.726  
  20669881.64208 108620966.88008      1520.610    20669881.75707  84639715.43407
      1184.893  
  22308086.64807 117229800.66607      2829.287    22308088.76007  91347912.44807
      2204.642  
  20602189.03707 109937225.76207       436.232    20602192.05407  85506751.68507
       339.292  
  22819090.95106 121895528.23706      3501.731    22819099.80106  94807662.99606
      2723.573  
  22063708.20006 117901780.94706       803.219    22063713.82606  91701410.55706
       624.728  
  21401542.74107 114403502.94907     -1914.545    21401547.80806  88980514.59506
     -1489.093  
  20959681.78507 112080819.79907     -3552.059    20959683.43107  87173976.29307
     -2762.715  
  20167562.53107 107920698.80707       443.423    20167563.96708  83938322.31608
       344.884  
  23244075.70905 124427383.11305      2090.386    23244081.91106  96776864.96606
      1625.858  
  37379240.29107  -1175195.17207        32.674    37379234.52107  -1158033.86307
        24.835  
  38346376.21807  -1187570.02307        40.002    38346372.61607  -1164843.14407
        31.372  
  37132482.63608  -1142997.20208         8.727    37132479.44407  -1130522.89607
         8.555  
  38469104.66107  -1144308.18907         8.471    38469103.48507  -1132900.50107
         6.692  
  40085269.71506  -3177860.27906      1590.066    40085272.37306  -2688224.95206
      1236.795  
  36113355.51208  -1396984.93008       224.276    36113350.71007  -1327206.36607
       172.357  
  38179712.90907  -3418968.39707      1619.455    38179710.40307  -2885911.88007
      1253.058  
  40397182.27306   1354557.51906     -1741.286    40397184.46906    802526.24506
     -1352.375  
  37122069.68508  -1447865.14408       270.737    37122067.97207  -1364979.32807
       210.035  
 13  3 17  1 14 30.0000000  0 23G02G05G08G29G26G15G09R02R12R11R01R24
                                R17R03C01C02C03C04C10C06C07C08C09
  21921700.93207 115199302.62307     -2714.381    21921700.94307  89765681.37607
     -2115.106  
  21468604.68507 112818270.84707     -1194.639    21468604.48507  87910339.39007
      -930.889  
  24087168.89906 126578921.47806      -705.473    24087172.05506  98632938.57906
      -549.723  
  21905866.27807 115116097.84707      -717.493    21905867.16407  89700855.53607
      -559.086  
  19831347.69308 104214435.36708      -783.531    19831347.69107  81206052.64807
      -610.544  
  20665553.48008 108598222.33108      1512.785    20665553.72608  84621992.41608
      1178.793  
  22300019.15407 117187405.80607      2824.206    22300021.30807  91314877.53807
      2200.684  
  20600968.40107 109930711.69907       432.997    20600971.19707  85501685.19107
       336.775  
  22809262.90406 121843028.65506      3499.123    22809270.11906  94766830.06006
      2721.545  
  22061471.31106 117889826.92806       791.377    22061476.87906  91692112.99406
       615.516  
  21406917.04507 114432230.83307     -1915.134    21406921.64206  89002858.45406
     -1489.551  
  20969657.21207 112134162.69807     -3559.576    20969658.76607  87215465.14307
     -2768.563  
  20166339.69907 107914155.53407       429.712    20166341.12008  83933233.08508
       334.218  
  23238222.85505 124396050.96305      2088.271    23238228.36006  96752495.51806
      1624.215  
  37379146.94108  -1175681.44408        36.342    37379141.37607  -1158409.84007
        28.892  
  38346260.10307  -1188172.95807        45.044    38346256.62207  -1165309.33007
        35.068  
  37132452.14208  -1143157.07608        12.721    37132448.64007  -1130646.48007
        10.114  
  38469075.50807  -1144461.22607        12.308    38469073.60107  -1133018.81807
        12.425  
  40080676.62506  -3201776.36506      1599.171    40080679.00106  -2706718.23806
      1238.837  
  36112709.46508  -1400347.23508       227.659    36112704.77907  -1329806.27407
       176.839  
  38175048.44307  -3443257.74007      1622.943    38175045.75107  -2904693.88407
      1253.261  
  40402208.44606   1380730.57906     -1745.779    40402210.73806    822764.87606
     -1350.606  
  37121285.72008  -1451948.32108       275.971    37121284.22207  -1368136.66807
       212.404  
 13  3 17  1 14 45.0000000  0 23G02G05G08G29G26G15G09R02R12R11R01R24
                                R17R03C01C02C03C04C10C06C07C08C09
  21929457.66707 115240064.89807     -2720.224    21929457.85307  89797444.13307
     -2119.658  
  21472017.35307 112836204.59007     -1196.432    21472016.99107  87924313.70407
      -932.288  
  24089194.39306 126589564.86706      -713.529    24089197.43806  98641232.07406
      -556.002  
  21907927.12907 115126927.30607      -726.171    21907927.96307  89709294.06607
      -565.847  
  19833598.43908 104226262.87408      -793.304    19833598.37207  81215268.88107
      -618.160  
  20661246.33408 108575587.47708      1505.398    20661246.48507  84604354.86707
      1173.037  
  22291965.58607 117145083.58107      2819.141    22291967.71807  91281899.21507
      2196.735  
  20599755.12207 109924237.55407       430.427    20599758.11507  85496649.73507
       334.776  
  22799441.98306 121790566.23206      3496.258    22799448.68406  94726026.00506
      2719.315  
  22059266.37306 117878044.87606       779.699    22059272.15106  91682949.19206
       606.432  
  21412291.82607 114460960.94207     -1915.352    21412296.06106  89025204.06706
     -1489.720  
  20979652.29007 112187610.04107     -3566.607    20979653.71607  87257035.24907
     -2774.031  
  20165153.83907 107907809.62107       416.547    20165155.26908  83928297.34408
       323.979  
  23232375.50105 124364745.87705      2085.790    23232380.40906  96728147.10106
      1622.282  
  37379052.24907  -1176174.89007        37.839    37379046.62607  -1158791.37707
        29.661  
  38346143.25807  -1188782.70207        42.647    38346139.80407  -1165780.79407
        33.555  
  37132420.20208  -1143324.27108        15.645    37132416.82307  -1130775.73707
        10.395  
  38469044.24407  -1144621.21707        15.552    38469043.70507  -1133142.49207
        10.494  
  40076083.34606  -3225697.21206      1597.217    40076085.32506  -2725215.23106
      1234.310  
  36112060.38108  -1403726.66808       229.890    36112055.90707  -1332419.43307
       177.573  
  38170385.43507  -3467535.70707      1623.532    38170383.62707  -2923467.09507
      1254.915  
  40407230.03206   1406881.80706     -1738.205    40407233.04406    842986.57506
     -1343.067  
  37120497.46808  -1456052.28608       276.124    37120495.45307  -1371310.06907
       216.275  
 13  3 17  1 15  0.0000000  0 23G02G05G08G29G26G15G09R02R12R11R01R24
                                R17R03C01C02C03C04C10C06C07C08C09
  21937231.18907 115280915.41007     -2726.464    21937231.47607  89829275.64207
     -2124.521  
  21475436.02207 112854169.87107     -1198.869    21475435.59307  87938312.60007
      -934.185  
  24091243.94806 126600334.13806      -721.821    24091246.65906  98649623.67106
      -562.464  
  21910012.96207 115137887.95007      -735.157    21910013.74807  89717834.80207
      -572.851  
  19835877.62408 104238239.76108      -803.534    19835877.51108  81224601.51408
      -626.131  
  20656961.04108 108553067.76508      1497.347    20656961.07507  84586807.04307
      1166.763  
  22283926.93707 117102839.86307      2813.507    22283929.03607  91248982.06707
      2192.346  
  20598550.23207 109917808.43007       426.925    20598553.40007  85491649.30007
       332.052  
  22789629.13806 121738146.94006      3493.313    22789635.72006  94685255.52106
      2717.027  
  22057094.78206 117866440.61606       767.604    22057100.83206  91673923.67706
       597.027  
  21417667.79007 114489698.78707     -1916.350    21417672.08006  89047555.67906
     -1490.497  
  20989667.87507 112241166.85907     -3574.225    20989669.26707  87298690.50007
     -2779.956  
  20164005.80108 107901666.62908       402.699    20164007.26708  83923519.44708
       313.210  
  23226534.64605 124333473.40305      2083.228    23226539.74106  96703824.09106
      1620.291  
  37378954.69508  -1176681.20208        31.123    37378949.44807  -1159182.85907
        23.002  
  38346024.36807  -1189404.95407        34.446    38346019.88507  -1166261.93007
        28.846  
  37132385.32608  -1143504.49008         8.655    37132382.01307  -1130915.05607
         7.065  
  38469010.92907  -1144793.83707         6.478    38469010.43907  -1133275.94807
         5.755  
  40071486.64406  -3249628.20006      1592.060    40071488.36806  -2743720.11306
      1230.962  
  36111407.17408  -1407128.78708       224.401    36111402.88607  -1335050.15407
       171.979  
  38165724.51507  -3491807.98407      1612.974    38165721.80807  -2942235.90807
      1246.318  
  40412248.34106   1433005.38006     -1742.622    40412250.26106    863186.96306
     -1350.332  
  37119704.14708  -1460182.67008       273.104    37119702.47507  -1374503.90007
       211.781  
 13  3 17  1 15 15.0000000  0 23G02G05G08G29G26G15G09R02R12R11R01R24
                                R17R03C01C02C03C04C10C06C07C08C09
  21945021.81907 115321855.51507     -2732.137    21945022.16607  89861176.96007
     -2128.944  
  21478860.94607 112872168.31707     -1201.030    21478860.68007  87952337.33207
      -935.870  
  24093317.60806 126611231.03306      -730.764    24093319.92406  98658114.71706
      -569.427  
  21912124.02907 115148981.32507      -743.917    21912124.74907  89726478.95807
      -579.677  
  19838185.51708 104250367.52808      -813.516    19838185.33207  81234051.71307
      -633.909  
  20652697.97307 108530665.07907      1489.759    20652697.97107  84569350.40707
      1160.851  
  22275903.56307 117060676.77907      2808.265    22275905.62507  91216127.75007
      2188.260  
  20597354.10207 109911425.92007       424.016    20597357.26607  85486685.11607
       329.790  
  22779824.76406 121685773.19206      3490.187    22779831.47806  94644520.46306
      2714.594  
  22054956.94706 117855016.11206       755.709    22054963.06506  91665037.95706
       587.774  
  21423045.54107 114518445.81707     -1916.634    21423049.90706  89069914.44806
     -1490.717  
  20999704.10307 112294834.44807     -3581.436    20999705.56607  87340431.89507
     -2785.565  
  20162896.14507 107895728.37607       389.125    20162897.42108  83918900.77908
       302.651  
  23220699.61105 124302234.98105      2081.602    23220704.68006  96679527.50706
      1619.018  
  37378859.67908  -1177175.87308        31.470    37378854.63107  -1159565.32107
        24.013  
  38345906.91307  -1190015.21007        39.538    38345902.98007  -1166733.78707
        30.608  
  37132352.67808  -1143673.23408         8.664    37132349.37207  -1131045.51107
         8.612  
  38468980.23507  -1144954.62707         9.468    38468978.65407  -1133400.24207
         6.184  
  40066894.17306  -3273544.93806      1589.258    40066895.68206  -2762213.92606
      1233.458  
  36110754.13808  -1410529.20408       225.849    36110749.46007  -1337679.54907
       175.144  
  38161069.03407  -3516049.94007      1612.506    38161066.83207  -2960981.26407
      1249.349  
  40417263.62706   1459125.76806     -1742.117    40417265.65006    883384.84506
     -1352.196  
  37118910.79308  -1464315.02108       277.386    37118909.42107  -1377699.24807
       210.616  
 13  3 17  1 15 30.0000000  0 23G02G05G08G29G26G15G09R02R12R11R01R24
                                R17R03C01C02C03C04C10C06C07C08C09
  21952829.51007 115362884.90007     -2738.496    21952829.88207  89893147.85907
     -2133.896  
  21482292.16407 112890199.66807     -1203.390    21482292.15707  87966387.71207
      -937.709  
  24095415.42006 126622255.18706      -739.752    24095417.98706  98666704.90106
      -576.435  
  21914260.30107 115160207.06007      -753.232    21914260.94507  89735226.24507
      -586.938  
  19840522.05008 104262645.66108      -823.957    19840521.69307  81243619.07907
      -642.046  
  20648457.00307 108508379.24307      1481.583    20648457.21507  84551984.82707
      1154.480  
  22267895.51307 117018594.44407      2802.534    22267897.59007  91183336.36807
      2183.796  
  20596166.77707 109905089.68507       420.506    20596169.83407  85481756.93407
       327.058  
  22770029.02106 121633445.18006      3486.797    22770035.99606  94603820.98006
      2711.958  
  22052852.82006 117843771.31706       743.254    22052858.70206  91656292.02106
       578.087  
  21428424.73407 114547201.65707     -1917.740    21428429.53607  89092280.06007
     -1491.580  
  21009760.75507 112348611.77607     -3589.117    21009762.29107  87382258.65807
     -2791.541  
  20161824.75207 107889994.57307       375.146    20161825.83908  83914441.14908
       291.779  
  23214870.26205 124271030.46505      2078.763    23214874.72106  96655257.28806
      1616.808  
  37378764.30308  -1177672.98508        34.140    37378758.60207  -1159949.69807
        27.028  
  38345788.82607  -1190627.57107        41.987    38345785.44307  -1167207.26707
        33.297  
  37132320.03508  -1143844.58508        12.318    37132316.86507  -1131177.97207
        10.072  
  38468948.79507  -1145117.57507         9.658    38468947.69207  -1133526.21907
         5.270  
  40062300.69406  -3297461.28706      1593.966    40062302.84706  -2780707.54906
      1234.744  
  36110098.21708  -1413941.88608       227.745    36110093.90407  -1340318.42407
       174.805  
  38156417.70807  -3540275.65207      1616.161    38156414.86607  -2979714.06607
      1247.520  
  40422276.62406   1485228.77106     -1741.543    40422278.37006    903569.26206
     -1345.491  
  37118114.17108  -1468463.43308       277.768    37118112.20807  -1380907.04507
       215.493  
 13  3 17  1 15 45.0000000  0 23G02G05G08G29G26G15G09R18R02R12R11R01
                                R24R17C01C02C03C04C10C06C07C08C09
  21960653.93607 115404001.50907     -2744.041    21960654.23907  89925186.72707
     -2138.217  
  21485729.35607 112908262.16707     -1205.345    21485729.50507  87980462.38207
      -939.230  
  24097537.16506 126633404.78706      -747.273    24097540.14205  98675392.88105
      -582.294  
  21916421.35807 115171563.23307      -761.542    21916421.88007  89744075.18207
      -593.412  
  19842886.71208 104275072.16108      -833.352    19842886.24907  81253302.06507
      -649.365  
  20644237.92807 108486208.28007      1474.133    20644238.22107  84534708.76307
      1148.676  
  22259902.61807 116976591.54507      2797.448    22259904.68307  91150606.87207
      2179.832  
  23286666.46706 124305810.13806      3441.712    23286674.16706  96682319.61006
      2676.888  
  20594987.74907 109898797.79707       417.935    20594990.71707  85476863.22807
       325.059  
  22760241.33406 121581161.74606      3484.040    22760248.67306  94563156.17406
      2709.815  
  22050781.69006 117832704.45306       731.745    22050787.39506  91647684.49406
       569.138  
  21433805.38707 114575964.61707     -1917.770    21433810.48906  89114651.20906
     -1491.602  
  21019837.57307 112402496.59907     -3595.972    21019839.26707  87424169.02407
     -2796.870  
  20160791.13907 107884463.51507       361.902    20160792.25008  83910139.20108
       281.478  
  37378668.12708  -1178174.82308        32.637    37378662.42807  -1160337.71807
        25.791  
  38345670.23807  -1191244.31107        40.541    38345666.46707  -1167684.13707
        30.762  
  37132286.28308  -1144020.81608        11.356    37132283.09707  -1131314.20207
         8.777  
  38468916.25707  -1145284.99607        11.204    38468916.08907  -1133655.64207
         7.520  
  40057707.52106  -3321379.53806      1596.403    40057709.65206  -2799202.51506
      1230.591  
  36109440.32308  -1417369.15208       227.580    36109435.61907  -1342968.56707
       176.607  
  38151767.81307  -3564487.24707      1613.347    38151764.11507  -2998435.94707
      1248.391  
  40427285.71706   1511312.06806     -1739.577    40427288.00506    923738.49106
     -1346.745  
  37117313.69908  -1472630.12608       277.353    37117312.50907  -1384128.96807
       215.240  
 13  3 17  1 16  0.0000000  0 23G02G05G08G29G26G15G09R18R02R12R11R01
                                R24R17C01C02C03C04C10C06C07C08C09
  21968496.09107 115445212.05307     -2750.445    21968496.47707  89957298.77607
     -2143.208  
  21489173.83807 112926362.62307     -1207.928    21489173.87707  87994566.61407
      -941.244  
  24099683.84506 126644686.79006      -756.143    24099687.20006  98684184.01906
      -589.205  
  21918608.42707 115183056.59607      -770.637    21918608.87607  89753031.02407
      -600.499  
  19845280.83008 104287653.76008      -843.839    19845280.36407  81263105.90807
      -657.537  
  20640042.11708 108464159.30308      1466.052    20640042.33607  84517527.74507
      1142.378  
  22251926.31007 116934675.44807      2791.715    22251928.20706  91117944.99906
      2175.364  
  23277006.21305 124254246.43305      3433.875    23277013.56206  96642214.51406
      2670.792  
  20593818.17707 109892557.14507       414.406    20593821.25307  85472009.39207
       322.315  
  22750463.54406 121528930.52306      3480.395    22750471.14306  94522531.95406
      2706.978  
  22048745.29606 117821823.08406       719.406    22048750.96106  91639221.22906
       559.539  
  21439188.64207 114604741.62007     -1918.809    21439193.70106  89137033.30006
     -1492.409  
  21029935.71607 112456495.51107     -3603.614    21029937.63807  87466168.12807
     -2802.815  
  20159796.83607 107879142.38807       347.769    20159797.78108  83906000.53108
       270.486  
  37378572.73408  -1178670.39208        34.293    37378567.18407  -1160720.90007
        26.297  
  38345553.45507  -1191854.47507        40.172    38345549.47007  -1168155.91807
        33.491  
  37132253.15508  -1144190.97408        12.855    37132250.38707  -1131445.75507
         8.002  
  38468886.04407  -1145446.00207        12.465    38468884.80707  -1133780.12907
         9.358  
  40053114.85306  -3345288.69406      1592.635    40053115.95806  -2817690.52306
      1229.886  
  36108781.43508  -1420799.95108       230.243    36108777.07307  -1345621.46807
       177.841  
  38147122.52307  -3588673.72407      1611.500    38147119.37007  -3017138.41207
      1248.262  
  40432292.58606   1537386.53406     -1737.117    40432295.19506    943900.85506
     -1344.505  
  37116512.46608  -1476804.18408       279.988    37116510.93907  -1387356.58507
       218.400  
 13  3 17  1 16 15.0000000  0 23G02G05G08G29G26G15G09R18R02R12R11R01
                                R24R17C01C02C03C04C10C06C07C08C09
  21976355.39107 115486513.06207     -2756.256    21976355.78807  89989481.31707
     -2147.736  
  21492624.86607 112944497.74407     -1210.089    21492624.87507  88008697.85307
      -942.928  
  24101855.21606 126656097.65706      -764.958    24101858.88906  98693075.57506
      -596.071  
  21920820.87607 115194683.47107      -779.357    21920821.27707  89762090.89607
      -607.293  
  19847703.74208 104300386.84508      -853.781    19847703.27807  81273027.78007
      -665.285  
  20635868.88908 108442228.96008      1458.218    20635869.07007  84500439.16807
      1136.274  
  22243965.94207 116892843.17407      2786.044    22243967.68807  91085348.44607
      2170.945  
  23267365.99805 124202790.00005      3426.705    23267372.83206  96602192.84906
      2665.212  
  20592657.61708 109886364.24208       411.426    20592660.60307  85467192.68807
       319.997  
  22740694.77406 121476748.55406      3477.392    22740702.54606  94481946.05806
      2704.643  
  22046743.22707 117811124.16307       707.426    22046748.73106  91630899.83706
       550.221  
  21444573.74207 114633528.99307     -1919.477    21444578.81206  89159423.44306
     -1492.929  
  21040054.32907 112510604.36607     -3610.749    21040056.56607  87508252.74507
     -2808.364  
  20158841.03207 107874027.59707       334.257    20158842.05208  83902022.34508
       259.976  
  37378477.28008  -1179167.75808        29.385    37378471.24107  -1161105.46507
        24.610  
  38345435.81307  -1192466.06407        36.509    38345432.05007  -1168628.82007
        31.735  
  37132220.16508  -1144363.09208         9.152    37132217.13107  -1131578.82207
         7.462  
  38468854.54107  -1145608.50607         5.799    38468853.72207  -1133905.76107
        10.361  
  40048523.59506  -3369196.75506      1591.253    40048524.46706  -2836177.65806
      1233.694  
  36108120.15808  -1424242.31408       225.347    36108115.84107  -1348283.28807
       175.327  
  38142481.63107  -3612843.14207      1607.278    38142478.07607  -3035827.67107
      1241.918  
  40437295.74106   1563444.02206     -1738.044    40437299.90206    964050.10306
     -1348.026  
  37115707.65508  -1480993.59708       277.710    37115706.93007  -1390596.05907
       215.898  
 13  3 17  1 16 30.0000000  0 23G02G05G08G29G26G15G09R18R02R12R11R01
                                R24R17C01C02C03C04C10C06C07C08C09
  21984231.22607 115527901.36107     -2762.189    21984231.66707  90021731.89507
     -2152.357  
  21496081.90807 112962664.67607     -1212.381    21496082.00807  88022853.87307
      -944.714  
  24104050.63906 126667634.47606      -773.133    24104054.05506  98702065.26006
      -602.441  
  21923058.18007 115206440.97107      -788.209    21923058.65207  89771252.54307
      -614.191  
  19850154.99908 104313268.27408      -863.858    19850154.41007  81283065.24307
      -673.136  
  20631717.65308 108420414.31308      1450.311    20631717.84307  84483440.74707
      1130.113  
  22236020.98607 116851092.34407      2780.680    22236022.74207  91052815.35807
      2166.765  
  23257744.94306 124151438.48106      3419.806    23257753.04006  96562252.76106
      2659.849  
  20591505.44308 109880215.81708       408.365    20591508.42207  85462410.57907
       317.617  
  22730934.99406 121424613.52106      3473.977    22730942.74106  94441396.69106
      2701.990  
  22044774.81306 117800604.70806       695.449    22044780.05106  91622718.04206
       540.905  
  21449960.28607 114662323.77907     -1919.942    21449965.58906  89181819.32806
     -1493.292  
  21050192.87007 112564819.74807     -3617.933    21050195.31907  87550420.20307
     -2813.952  
  20157923.28908 107869116.45008       320.550    20157924.39908  83898202.52508
       249.314  
  37378380.45308  -1179670.15108        34.597    37378375.40407  -1161493.91007
        25.493  
  38345317.61807  -1193082.32107        38.893    38345313.55307  -1169105.31007
        28.467  
  37132186.13508  -1144540.36908        11.687    37132183.11207  -1131715.86407
         7.320  
  38468822.55607  -1145775.83607        10.034    38468821.05607  -1134035.13207
         8.816  
  40043932.06206  -3393106.72406      1592.583    40043933.96706  -2854666.23106
      1234.734  
  36107456.25308  -1427699.43608       229.925    36107452.26707  -1350956.54307
       176.274  
  38137842.27907  -3636998.61607      1611.222    38137838.82007  -3054506.16407
      1242.795  
  40442297.04806   1589481.19206     -1732.064    40442300.10006    984183.65306
     -1345.414  
  37114899.77208  -1485201.65908       281.054    37114898.40107  -1393849.98007
       215.698  
 13  3 17  1 16 45.0000000  0 23G02G05G08G29G26G15G09R18R02R12R11R01
                                R24R17C01C02C03C04C10C06C07C08C09
  21992124.00607 115569377.96907     -2768.136    21992124.31407  90054051.25907
     -2156.994  
  21499545.20707 112980864.34607     -1214.554    21499545.21807  88037035.41407
      -946.407  
  24106270.26406 126679298.32406      -782.040    24106273.59606  98711153.93406
      -609.381  
  21925320.44107 115218329.83607      -797.077    21925320.96507  89780516.57307
      -621.100  
  19852634.71908 104326298.91508      -873.728    19852634.11707  81293218.97307
      -680.828  
  20627588.75008 108398716.69208      1442.588    20627588.93608  84466533.51408
      1124.095  
  22228091.79507 116809424.48007      2775.066    22228093.58307  91020346.91707
      2162.391  
  23248144.59206 124100193.45706      3412.858    23248152.66306  96522395.48306
      2654.442  
  20590361.87207 109874112.92407       405.315    20590365.03607  85457663.88707
       315.245  
  22721184.12006 121372526.93906      3470.827    22721191.89506  94400884.99506
      2699.538  
  22042840.07006 117790266.07806       683.226    22042845.08306  91614676.89706
       531.399  
  21455348.70007 114691127.13207     -1920.606    21455353.97906  89204221.91206
     -1493.807  
  21060351.32407 112619142.21807     -3625.232    21060353.98807  87592670.95107
     -2819.629  
  20157043.73907 107864409.95907       306.814    20157044.93808  83894541.90708
       238.632  
  37378285.10408  -1180168.54708        30.467    37378279.42007  -1161879.27407
        19.841  
  38345199.29807  -1193694.28107        36.590    38345195.48807  -1169578.49007
        28.752  
  37132152.41608  -1144713.82408         7.539    37132149.52707  -1131849.95407
         8.042  
  38468791.07107  -1145938.96707         8.872    38468790.32907  -1134161.23407
         2.961  
  40039340.66906  -3417009.53906      1593.948    40039343.52206  -2873149.30406
      1230.298  
  36106791.23208  -1431162.24408       226.301    36106787.62207  -1353634.18107
       175.738  
  38133207.62707  -3661131.04707      1604.280    38133205.07407  -3073166.84507
      1240.962  
  40447295.06506   1615507.11506     -1735.635    40447298.05406   1004308.47006
     -1343.674  
  37114089.62508  -1489419.27708       277.535    37114088.65707  -1397111.24807
       214.027  
 13  3 17  1 17  0.0000000  0 23G02G05G08G29G26G15G09R18R02R12R11R01
                                R24R17C01C02C03C04C10C06C07C08C09
  22000033.74207 115610943.94607     -2774.328    22000034.03107  90086440.28507
     -2161.816  
  21503014.98707 112999097.95707     -1216.779    21503014.83207  88051243.40607
      -948.140  
  24108514.20506 126691090.32106      -790.700    24108517.38806  98720342.49206
      -616.129  
  21927608.02307 115230351.21707      -805.998    21927608.38007  89789883.85507
      -628.051  
  19855143.04008 104339479.92908      -883.877    19855142.53207  81303489.88007
      -688.735  
  20623482.34108 108377137.30408      1434.643    20623482.52007  84449718.41407
      1117.905  
  22220178.51907 116767841.22707      2769.385    22220180.52107  90987944.41707
      2157.965  
  23238565.22106 124049056.66906      3405.592    23238573.15706  96482622.45806
      2648.797  
  20589226.99607 109868056.68207       402.062    20589230.12707  85452953.46407
       312.714  
  22711442.73106 121320490.92906      3467.133    22711450.41006  94360412.63106
      2696.665  
  22040939.36106 117780109.89306       671.050    22040944.20906  91606777.64206
       521.927  
  21460738.91807 114719940.22907     -1921.424    21460743.97906  89226632.05606
     -1494.443  
  21070529.85307 112673572.33407     -3632.359    21070532.81007  87635005.42707
     -2825.172  
  20156202.63107 107859909.58707       292.961    20156204.01408  83891041.59208
       227.857  
  37378188.58808  -1180668.83708        35.710    37378183.38107  -1162266.09407
        26.938  
  38345082.01207  -1194307.70907        43.202    38345078.44107  -1170052.79607
        33.812  
  37132118.91008  -1144889.29408        12.416    37132116.04607  -1131985.61407
        10.238  
  38468758.93307  -1146103.70707        10.699    38468758.11307  -1134288.58607
         8.090  
  40034750.99306  -3440911.07706      1596.246    40034753.42106  -2891631.42806
      1235.312  
  36106124.16908  -1434636.61808       232.610    36106120.19907  -1356320.76107
       180.787  
  38128576.33207  -3685246.27507      1605.623    38128573.61307  -3091814.20207
      1244.485  
  40452290.25506   1641515.71506     -1730.682    40452291.82606   1024419.90506
     -1340.733  
  37113276.98208  -1493652.34508       282.354    37113275.51007  -1400384.48907
       220.909  
 13  3 17  1 17 15.0000000  0 23G02G05G08G29G26G15G09R18R02R12R11R01
                                R24R17C01C02C03C04C10C06C07C08C09
  22007960.55307 115652599.57207     -2780.027    22007960.76307  90118899.16007
     -2166.257  
  21506491.44007 113017366.22207     -1218.937    21506491.21507  88065478.39907
      -949.822  
  24110782.50706 126703010.89406      -798.667    24110785.61306  98729631.24706
      -622.336  
  21929920.95207 115242505.46707      -814.656    21929921.24707  89799354.68207
      -634.797  
  19857679.93808 104352811.44908      -893.763    19857679.63407  81313878.06707
      -696.439  
  20619398.57908 108355676.61008      1426.919    20619398.68208  84432995.80008
      1111.886  
  22212281.52607 116726343.51107      2763.604    22212283.79207  90955608.56207
      2153.461  
  23229006.49506 123998029.04906      3397.907    23229014.10406  96442934.36106
      2642.822  
  20588100.87907 109862047.53907       398.987    20588103.77107  85448279.67107
       310.323  
  22701710.94706 121268506.40206      3463.905    22701718.40106  94319980.30906
      2694.155  
  22039073.03206 117770136.78306       658.815    22039077.90306  91599020.79206
       512.414  
  21466131.14707 114748763.39107     -1921.871    21466135.88106  89249050.04006
     -1494.790  
  21080728.58807 112728110.34807     -3639.366    21080731.62107  87677423.84207
     -2830.620  
  20155400.16707 107855615.65807       279.498    20155401.74608  83887701.84508
       217.386  
  37378091.77408  -1181172.08508        31.919    37378086.07707  -1162655.22407
        24.266  
  38344963.73607  -1194923.79907        38.066    38344959.80807  -1170529.18507
        31.751  
  37132084.66508  -1145067.92008         9.463    37132081.51307  -1132123.70607
         6.215  
  38468727.14107  -1146271.27307         9.754    38468725.67207  -1134418.12007
         6.111  
  40030161.29206  -3464812.30806      1596.855    40030163.19406  -2910113.29706
      1234.671  
  36105454.30108  -1438123.66708       229.016    36105451.19107  -1359017.14407
       178.923  
  38123947.61407  -3709345.30507      1605.744    38123945.92807  -3110449.05707
      1241.731  
  40457282.06906   1667505.88206     -1730.929    40457284.74106   1044517.10206
     -1340.902  
  37112461.09908  -1497902.03408       283.277    37112459.57007  -1403670.59207
       218.016  
 13  3 17  1 17 30.0000000  0 23G02G05G08G29G26G15G09R18R02R12R11R01
                                R24R17C01C02C03C04C10C06C07C08C09
  22015904.10207 115694342.78007     -2785.746    22015904.17407  90151426.28107
     -2170.715  
  21509973.91507 113035666.97207     -1221.181    21509973.85107  88079738.69307
      -951.571  
  24113074.96506 126715058.09906      -807.598    24113078.21006  98739018.64806
      -629.297  
  21932258.73307 115254790.27007      -823.425    21932259.16107  89808927.21907
      -641.632  
  19860245.08408 104366291.20908      -903.631    19860244.88107  81324381.76107
      -704.128  
  20615336.97708 108334332.49308      1418.985    20615336.99007  84416364.01707
      1105.704  
  22204400.51707 116684929.67707      2757.949    22204403.08607  90923338.06907
      2149.053  
  23219467.79706 123947108.97706      3390.925    23219475.10806  96403329.88606
      2637.386  
  20586982.99407 109856083.17207       395.927    20586985.70007  85443640.71807
       307.944  
  22691988.69006 121216571.85906      3460.718    22691996.09606  94279586.84806
      2691.675  
  22037240.72406 117760345.14806       646.715    22037245.52106  91591405.07506
       503.001  
  21471524.53007 114777594.40507     -1922.334    21471529.28706  89271474.13306
     -1495.150  
  21090947.07307 112782753.37307     -3646.428    21090949.99607  87719923.92807
     -2836.114  
  20154635.91307 107851526.43107       265.745    20154637.65508  83884521.30408
       206.689  
  37377996.39608  -1181667.81508        33.851    37377990.87607  -1163038.52607
        27.343  
  38344846.77307  -1195532.03007        40.761    38344843.12707  -1170999.45407
        34.415  
  37132051.52808  -1145239.16208        12.373    37132048.50207  -1132256.09707
        11.301  
  38468696.46307  -1146431.06907        11.622    38468695.16407  -1134541.66907
         4.904  
  40025573.85806  -3488702.73706      1593.793    40025576.24406  -2928586.76406
      1229.832  
